<?xml version="1.0" encoding="UTF-8"?><markers>
<marker id="460324864" label="Indigo Plant" category="73" did="1879054949" parentZoneId="1879063938" longitude="-5.67916" latitude="-34.33922"/>
<marker id="460324865" label="Giant Stone-breaker" category="71" did="1879059959" parentZoneId="1879063938" longitude="-5.67916" latitude="-34.33922"/>
<marker id="460324866" label="Clawing Rock-worm" category="71" did="1879080375" parentZoneId="1879063938" longitude="-5.67916" latitude="-34.33922"/>
<marker id="460324867" label="Strawberries" category="73" did="1879061415" parentZoneId="1879063938" longitude="-5.67916" latitude="-34.33922"/>
<marker id="460324868" label="Fine Clover Honey" category="73" did="1879061399" parentZoneId="1879063938" longitude="-5.67916" latitude="-34.33922"/>
<marker id="460324869" label="Giant Rock-thrower" category="71" did="1879059960" parentZoneId="1879063938" longitude="-5.67916" latitude="-34.33922"/>
<marker id="460324870" label="Giant Head-smasher" category="71" did="1879059961" parentZoneId="1879063938" longitude="-5.67916" latitude="-34.33922"/>
<marker id="460324871" label="Raspberries" category="73" did="1879061417" parentZoneId="1879063938" longitude="-5.67916" latitude="-34.33922"/>
<marker id="460324872" label="Tater" category="73" did="1879061257" parentZoneId="1879063938" longitude="-5.67916" latitude="-34.33922"/>
<marker id="460324873" label="Blackberries" category="73" did="1879061418" parentZoneId="1879063938" longitude="-5.67916" latitude="-34.33922"/>
<marker id="460324874" label="Blueberries" category="73" did="1879061342" parentZoneId="1879063938" longitude="-5.67916" latitude="-34.33922"/>
<marker id="460324875" label="Indigo Plant" category="73" did="1879054949" parentZoneId="1879063938" longitude="-5.9356055" latitude="-34.39917"/>
<marker id="460324876" label="Giant Stone-breaker" category="71" did="1879059959" parentZoneId="1879063938" longitude="-5.9356055" latitude="-34.39917"/>
<marker id="460324877" label="Clawing Rock-worm" category="71" did="1879080375" parentZoneId="1879063938" longitude="-5.9356055" latitude="-34.39917"/>
<marker id="460324878" label="Strawberries" category="73" did="1879061415" parentZoneId="1879063938" longitude="-5.9356055" latitude="-34.39917"/>
<marker id="460324879" label="Fine Clover Honey" category="73" did="1879061399" parentZoneId="1879063938" longitude="-5.9356055" latitude="-34.39917"/>
<marker id="460324880" label="Giant Rock-thrower" category="71" did="1879059960" parentZoneId="1879063938" longitude="-5.9356055" latitude="-34.39917"/>
<marker id="460324881" label="Giant Head-smasher" category="71" did="1879059961" parentZoneId="1879063938" longitude="-5.9356055" latitude="-34.39917"/>
<marker id="460324882" label="Raspberries" category="73" did="1879061417" parentZoneId="1879063938" longitude="-5.9356055" latitude="-34.39917"/>
<marker id="460324883" label="Tater" category="73" did="1879061257" parentZoneId="1879063938" longitude="-5.9356055" latitude="-34.39917"/>
<marker id="460324884" label="Blackberries" category="73" did="1879061418" parentZoneId="1879063938" longitude="-5.9356055" latitude="-34.39917"/>
<marker id="460324885" label="Blueberries" category="73" did="1879061342" parentZoneId="1879063938" longitude="-5.9356055" latitude="-34.39917"/>
<marker id="460324886" label="Indigo Plant" category="73" did="1879054949" parentZoneId="1879063938" longitude="-5.9750195" latitude="-34.378242"/>
<marker id="460324887" label="Giant Stone-breaker" category="71" did="1879059959" parentZoneId="1879063938" longitude="-5.9750195" latitude="-34.378242"/>
<marker id="460324888" label="Clawing Rock-worm" category="71" did="1879080375" parentZoneId="1879063938" longitude="-5.9750195" latitude="-34.378242"/>
<marker id="460324889" label="Strawberries" category="73" did="1879061415" parentZoneId="1879063938" longitude="-5.9750195" latitude="-34.378242"/>
<marker id="460324890" label="Fine Clover Honey" category="73" did="1879061399" parentZoneId="1879063938" longitude="-5.9750195" latitude="-34.378242"/>
<marker id="460324891" label="Giant Rock-thrower" category="71" did="1879059960" parentZoneId="1879063938" longitude="-5.9750195" latitude="-34.378242"/>
<marker id="460324892" label="Giant Head-smasher" category="71" did="1879059961" parentZoneId="1879063938" longitude="-5.9750195" latitude="-34.378242"/>
<marker id="460324893" label="Raspberries" category="73" did="1879061417" parentZoneId="1879063938" longitude="-5.9750195" latitude="-34.378242"/>
<marker id="460324894" label="Tater" category="73" did="1879061257" parentZoneId="1879063938" longitude="-5.9750195" latitude="-34.378242"/>
<marker id="460324895" label="Blackberries" category="73" did="1879061418" parentZoneId="1879063938" longitude="-5.9750195" latitude="-34.378242"/>
<marker id="460324896" label="Blueberries" category="73" did="1879061342" parentZoneId="1879063938" longitude="-5.9750195" latitude="-34.378242"/>
<marker id="460324897" label="Indigo Plant" category="73" did="1879054949" parentZoneId="1879063938" longitude="-5.601953" latitude="-34.506554"/>
<marker id="460324898" label="Giant Stone-breaker" category="71" did="1879059959" parentZoneId="1879063938" longitude="-5.601953" latitude="-34.506554"/>
<marker id="460324899" label="Clawing Rock-worm" category="71" did="1879080375" parentZoneId="1879063938" longitude="-5.601953" latitude="-34.506554"/>
<marker id="460324900" label="Strawberries" category="73" did="1879061415" parentZoneId="1879063938" longitude="-5.601953" latitude="-34.506554"/>
<marker id="460324901" label="Fine Clover Honey" category="73" did="1879061399" parentZoneId="1879063938" longitude="-5.601953" latitude="-34.506554"/>
<marker id="460324902" label="Giant Rock-thrower" category="71" did="1879059960" parentZoneId="1879063938" longitude="-5.601953" latitude="-34.506554"/>
<marker id="460324903" label="Giant Head-smasher" category="71" did="1879059961" parentZoneId="1879063938" longitude="-5.601953" latitude="-34.506554"/>
<marker id="460324904" label="Raspberries" category="73" did="1879061417" parentZoneId="1879063938" longitude="-5.601953" latitude="-34.506554"/>
<marker id="460324905" label="Tater" category="73" did="1879061257" parentZoneId="1879063938" longitude="-5.601953" latitude="-34.506554"/>
<marker id="460324906" label="Blackberries" category="73" did="1879061418" parentZoneId="1879063938" longitude="-5.601953" latitude="-34.506554"/>
<marker id="460324907" label="Blueberries" category="73" did="1879061342" parentZoneId="1879063938" longitude="-5.601953" latitude="-34.506554"/>
<marker id="460324908" label="Indigo Plant" category="73" did="1879054949" parentZoneId="1879063938" longitude="-5.5845604" latitude="-34.463116"/>
<marker id="460324909" label="Giant Stone-breaker" category="71" did="1879059959" parentZoneId="1879063938" longitude="-5.5845604" latitude="-34.463116"/>
<marker id="460324910" label="Clawing Rock-worm" category="71" did="1879080375" parentZoneId="1879063938" longitude="-5.5845604" latitude="-34.463116"/>
<marker id="460324911" label="Strawberries" category="73" did="1879061415" parentZoneId="1879063938" longitude="-5.5845604" latitude="-34.463116"/>
<marker id="460324912" label="Fine Clover Honey" category="73" did="1879061399" parentZoneId="1879063938" longitude="-5.5845604" latitude="-34.463116"/>
<marker id="460324913" label="Giant Rock-thrower" category="71" did="1879059960" parentZoneId="1879063938" longitude="-5.5845604" latitude="-34.463116"/>
<marker id="460324914" label="Giant Head-smasher" category="71" did="1879059961" parentZoneId="1879063938" longitude="-5.5845604" latitude="-34.463116"/>
<marker id="460324915" label="Raspberries" category="73" did="1879061417" parentZoneId="1879063938" longitude="-5.5845604" latitude="-34.463116"/>
<marker id="460324916" label="Tater" category="73" did="1879061257" parentZoneId="1879063938" longitude="-5.5845604" latitude="-34.463116"/>
<marker id="460324917" label="Blackberries" category="73" did="1879061418" parentZoneId="1879063938" longitude="-5.5845604" latitude="-34.463116"/>
<marker id="460324918" label="Blueberries" category="73" did="1879061342" parentZoneId="1879063938" longitude="-5.5845604" latitude="-34.463116"/>
<marker id="460324919" label="Indigo Plant" category="73" did="1879054949" parentZoneId="1879063938" longitude="-5.25" latitude="-34.27968"/>
<marker id="460324920" label="Giant Stone-breaker" category="71" did="1879059959" parentZoneId="1879063938" longitude="-5.25" latitude="-34.27968"/>
<marker id="460324921" label="Clawing Rock-worm" category="71" did="1879080375" parentZoneId="1879063938" longitude="-5.25" latitude="-34.27968"/>
<marker id="460324922" label="Strawberries" category="73" did="1879061415" parentZoneId="1879063938" longitude="-5.25" latitude="-34.27968"/>
<marker id="460324923" label="Fine Clover Honey" category="73" did="1879061399" parentZoneId="1879063938" longitude="-5.25" latitude="-34.27968"/>
<marker id="460324924" label="Giant Rock-thrower" category="71" did="1879059960" parentZoneId="1879063938" longitude="-5.25" latitude="-34.27968"/>
<marker id="460324925" label="Giant Head-smasher" category="71" did="1879059961" parentZoneId="1879063938" longitude="-5.25" latitude="-34.27968"/>
<marker id="460324926" label="Raspberries" category="73" did="1879061417" parentZoneId="1879063938" longitude="-5.25" latitude="-34.27968"/>
<marker id="460324927" label="Tater" category="73" did="1879061257" parentZoneId="1879063938" longitude="-5.25" latitude="-34.27968"/>
<marker id="460324928" label="Blackberries" category="73" did="1879061418" parentZoneId="1879063938" longitude="-5.25" latitude="-34.27968"/>
<marker id="460324929" label="Blueberries" category="73" did="1879061342" parentZoneId="1879063938" longitude="-5.25" latitude="-34.27968"/>
<marker id="460324930" label="Indigo Plant" category="73" did="1879054949" parentZoneId="1879063938" longitude="-5.312871" latitude="-34.30961"/>
<marker id="460324931" label="Giant Stone-breaker" category="71" did="1879059959" parentZoneId="1879063938" longitude="-5.312871" latitude="-34.30961"/>
<marker id="460324932" label="Clawing Rock-worm" category="71" did="1879080375" parentZoneId="1879063938" longitude="-5.312871" latitude="-34.30961"/>
<marker id="460324933" label="Strawberries" category="73" did="1879061415" parentZoneId="1879063938" longitude="-5.312871" latitude="-34.30961"/>
<marker id="460324934" label="Fine Clover Honey" category="73" did="1879061399" parentZoneId="1879063938" longitude="-5.312871" latitude="-34.30961"/>
<marker id="460324935" label="Giant Rock-thrower" category="71" did="1879059960" parentZoneId="1879063938" longitude="-5.312871" latitude="-34.30961"/>
<marker id="460324936" label="Giant Head-smasher" category="71" did="1879059961" parentZoneId="1879063938" longitude="-5.312871" latitude="-34.30961"/>
<marker id="460324937" label="Raspberries" category="73" did="1879061417" parentZoneId="1879063938" longitude="-5.312871" latitude="-34.30961"/>
<marker id="460324938" label="Tater" category="73" did="1879061257" parentZoneId="1879063938" longitude="-5.312871" latitude="-34.30961"/>
<marker id="460324939" label="Blackberries" category="73" did="1879061418" parentZoneId="1879063938" longitude="-5.312871" latitude="-34.30961"/>
<marker id="460324940" label="Blueberries" category="73" did="1879061342" parentZoneId="1879063938" longitude="-5.312871" latitude="-34.30961"/>
<marker id="460324941" label="Indigo Plant" category="73" did="1879054949" parentZoneId="1879063938" longitude="-5.302744" latitude="-34.734676"/>
<marker id="460324942" label="Giant Stone-breaker" category="71" did="1879059959" parentZoneId="1879063938" longitude="-5.302744" latitude="-34.734676"/>
<marker id="460324943" label="Clawing Rock-worm" category="71" did="1879080375" parentZoneId="1879063938" longitude="-5.302744" latitude="-34.734676"/>
<marker id="460324944" label="Strawberries" category="73" did="1879061415" parentZoneId="1879063938" longitude="-5.302744" latitude="-34.734676"/>
<marker id="460324945" label="Fine Clover Honey" category="73" did="1879061399" parentZoneId="1879063938" longitude="-5.302744" latitude="-34.734676"/>
<marker id="460324946" label="Giant Rock-thrower" category="71" did="1879059960" parentZoneId="1879063938" longitude="-5.302744" latitude="-34.734676"/>
<marker id="460324947" label="Giant Head-smasher" category="71" did="1879059961" parentZoneId="1879063938" longitude="-5.302744" latitude="-34.734676"/>
<marker id="460324948" label="Raspberries" category="73" did="1879061417" parentZoneId="1879063938" longitude="-5.302744" latitude="-34.734676"/>
<marker id="460324949" label="Tater" category="73" did="1879061257" parentZoneId="1879063938" longitude="-5.302744" latitude="-34.734676"/>
<marker id="460324950" label="Blackberries" category="73" did="1879061418" parentZoneId="1879063938" longitude="-5.302744" latitude="-34.734676"/>
<marker id="460324951" label="Blueberries" category="73" did="1879061342" parentZoneId="1879063938" longitude="-5.302744" latitude="-34.734676"/>
<marker id="460324952" label="Indigo Plant" category="73" did="1879054949" parentZoneId="1879063938" longitude="-5.2562985" latitude="-34.673855"/>
<marker id="460324953" label="Giant Stone-breaker" category="71" did="1879059959" parentZoneId="1879063938" longitude="-5.2562985" latitude="-34.673855"/>
<marker id="460324954" label="Clawing Rock-worm" category="71" did="1879080375" parentZoneId="1879063938" longitude="-5.2562985" latitude="-34.673855"/>
<marker id="460324955" label="Strawberries" category="73" did="1879061415" parentZoneId="1879063938" longitude="-5.2562985" latitude="-34.673855"/>
<marker id="460324956" label="Fine Clover Honey" category="73" did="1879061399" parentZoneId="1879063938" longitude="-5.2562985" latitude="-34.673855"/>
<marker id="460324957" label="Giant Rock-thrower" category="71" did="1879059960" parentZoneId="1879063938" longitude="-5.2562985" latitude="-34.673855"/>
<marker id="460324958" label="Giant Head-smasher" category="71" did="1879059961" parentZoneId="1879063938" longitude="-5.2562985" latitude="-34.673855"/>
<marker id="460324959" label="Raspberries" category="73" did="1879061417" parentZoneId="1879063938" longitude="-5.2562985" latitude="-34.673855"/>
<marker id="460324960" label="Tater" category="73" did="1879061257" parentZoneId="1879063938" longitude="-5.2562985" latitude="-34.673855"/>
<marker id="460324961" label="Blackberries" category="73" did="1879061418" parentZoneId="1879063938" longitude="-5.2562985" latitude="-34.673855"/>
<marker id="460324962" label="Blueberries" category="73" did="1879061342" parentZoneId="1879063938" longitude="-5.2562985" latitude="-34.673855"/>
<marker id="460324963" label="Indigo Plant" category="73" did="1879054949" parentZoneId="1879063938" longitude="-5.52748" latitude="-34.479042"/>
<marker id="460324964" label="Giant Stone-breaker" category="71" did="1879059959" parentZoneId="1879063938" longitude="-5.52748" latitude="-34.479042"/>
<marker id="460324965" label="Clawing Rock-worm" category="71" did="1879080375" parentZoneId="1879063938" longitude="-5.52748" latitude="-34.479042"/>
<marker id="460324966" label="Strawberries" category="73" did="1879061415" parentZoneId="1879063938" longitude="-5.52748" latitude="-34.479042"/>
<marker id="460324967" label="Fine Clover Honey" category="73" did="1879061399" parentZoneId="1879063938" longitude="-5.52748" latitude="-34.479042"/>
<marker id="460324968" label="Giant Rock-thrower" category="71" did="1879059960" parentZoneId="1879063938" longitude="-5.52748" latitude="-34.479042"/>
<marker id="460324969" label="Giant Head-smasher" category="71" did="1879059961" parentZoneId="1879063938" longitude="-5.52748" latitude="-34.479042"/>
<marker id="460324970" label="Raspberries" category="73" did="1879061417" parentZoneId="1879063938" longitude="-5.52748" latitude="-34.479042"/>
<marker id="460324971" label="Tater" category="73" did="1879061257" parentZoneId="1879063938" longitude="-5.52748" latitude="-34.479042"/>
<marker id="460324972" label="Blackberries" category="73" did="1879061418" parentZoneId="1879063938" longitude="-5.52748" latitude="-34.479042"/>
<marker id="460324973" label="Blueberries" category="73" did="1879061342" parentZoneId="1879063938" longitude="-5.52748" latitude="-34.479042"/>
<marker id="460349440" label="Hunter Trainer" category="42" did="1879052445" parentZoneId="1879063939" longitude="-5.897822" latitude="-29.911093"/>
<marker id="460349441" label="Light Armoursmith" category="38" did="1879063304" parentZoneId="1879063939" longitude="-5.7668552" latitude="-29.237803"/>
<marker id="460349442" label="Light Armoursmith" category="38" did="1879063305" parentZoneId="1879063939" longitude="-5.7740526" latitude="-29.237694"/>
<marker id="460353536" label="Bowyer" category="38" did="1879063300" parentZoneId="1879063939" longitude="-5.8875976" latitude="-28.899014"/>
<marker id="460353537" label="Bowyer" category="38" did="1879063301" parentZoneId="1879063939" longitude="-5.876787" latitude="-28.905674"/>
<marker id="460353538" label="Heavy Armoursmith" category="38" did="1879063302" parentZoneId="1879063939" longitude="-5.7706637" latitude="-29.133368"/>
<marker id="460353539" label="Heavy Armoursmith" category="38" did="1879063303" parentZoneId="1879063939" longitude="-5.763994" latitude="-29.12958"/>
<marker id="460353540" label="Medium Armoursmith" category="38" did="1879063307" parentZoneId="1879063939" longitude="-5.859453" latitude="-29.128262"/>
<marker id="460353541" label="Bard" category="54" did="1879063792" parentZoneId="1879063939" longitude="-5.660322" latitude="-28.965918"/>
<marker id="460353542" label="The Market of Rivendell" category="43" did="1879063809" parentZoneId="1879063939" longitude="-5.7595897" latitude="-29.06035"/>
<marker id="460353543" label="Mailbox" category="34" did="1879084181" parentZoneId="1879063939" longitude="-5.640537" latitude="-28.981806"/>
<marker id="460357632" label="Guardian Trainer" category="42" did="1879060099" parentZoneId="1879063939" longitude="-5.3292575" latitude="-28.107178"/>
<marker id="460365824" label="Imdolen" category="43" did="1879063810" parentZoneId="1879063939" longitude="-5.394385" latitude="-26.488417"/>
<marker id="460390400" label="Indigo Plant" category="73" did="1879054949" parentZoneId="1879063938" longitude="-5.146982" latitude="-34.47737"/>
<marker id="460390401" label="Giant Stone-breaker" category="71" did="1879059959" parentZoneId="1879063938" longitude="-5.146982" latitude="-34.47737"/>
<marker id="460390402" label="Clawing Rock-worm" category="71" did="1879080375" parentZoneId="1879063938" longitude="-5.146982" latitude="-34.47737"/>
<marker id="460390403" label="Strawberries" category="73" did="1879061415" parentZoneId="1879063938" longitude="-5.146982" latitude="-34.47737"/>
<marker id="460390404" label="Fine Clover Honey" category="73" did="1879061399" parentZoneId="1879063938" longitude="-5.146982" latitude="-34.47737"/>
<marker id="460390405" label="Giant Rock-thrower" category="71" did="1879059960" parentZoneId="1879063938" longitude="-5.146982" latitude="-34.47737"/>
<marker id="460390406" label="Giant Head-smasher" category="71" did="1879059961" parentZoneId="1879063938" longitude="-5.146982" latitude="-34.47737"/>
<marker id="460390407" label="Raspberries" category="73" did="1879061417" parentZoneId="1879063938" longitude="-5.146982" latitude="-34.47737"/>
<marker id="460390408" label="Tater" category="73" did="1879061257" parentZoneId="1879063938" longitude="-5.146982" latitude="-34.47737"/>
<marker id="460390409" label="Blackberries" category="73" did="1879061418" parentZoneId="1879063938" longitude="-5.146982" latitude="-34.47737"/>
<marker id="460390410" label="Blueberries" category="73" did="1879061342" parentZoneId="1879063938" longitude="-5.146982" latitude="-34.47737"/>
<marker id="460390411" label="Indigo Plant" category="73" did="1879054949" parentZoneId="1879063938" longitude="-4.9559765" latitude="-34.592003"/>
<marker id="460390412" label="Giant Stone-breaker" category="71" did="1879059959" parentZoneId="1879063938" longitude="-4.9559765" latitude="-34.592003"/>
<marker id="460390413" label="Clawing Rock-worm" category="71" did="1879080375" parentZoneId="1879063938" longitude="-4.9559765" latitude="-34.592003"/>
<marker id="460390414" label="Strawberries" category="73" did="1879061415" parentZoneId="1879063938" longitude="-4.9559765" latitude="-34.592003"/>
<marker id="460390415" label="Fine Clover Honey" category="73" did="1879061399" parentZoneId="1879063938" longitude="-4.9559765" latitude="-34.592003"/>
<marker id="460390416" label="Giant Rock-thrower" category="71" did="1879059960" parentZoneId="1879063938" longitude="-4.9559765" latitude="-34.592003"/>
<marker id="460390417" label="Giant Head-smasher" category="71" did="1879059961" parentZoneId="1879063938" longitude="-4.9559765" latitude="-34.592003"/>
<marker id="460390418" label="Raspberries" category="73" did="1879061417" parentZoneId="1879063938" longitude="-4.9559765" latitude="-34.592003"/>
<marker id="460390419" label="Tater" category="73" did="1879061257" parentZoneId="1879063938" longitude="-4.9559765" latitude="-34.592003"/>
<marker id="460390420" label="Blackberries" category="73" did="1879061418" parentZoneId="1879063938" longitude="-4.9559765" latitude="-34.592003"/>
<marker id="460390421" label="Blueberries" category="73" did="1879061342" parentZoneId="1879063938" longitude="-4.9559765" latitude="-34.592003"/>
<marker id="460410880" label="Milestone" category="55" did="1879063393" parentZoneId="1879063939" longitude="-4.4333005" latitude="-30.05996"/>
<marker id="460410881" label="The Bridge of Rivendell" category="43" did="1879063808" parentZoneId="1879063939" longitude="-4.4789453" latitude="-30.278837"/>
<marker id="460414976" label="Mailbox" category="34" did="1879084181" parentZoneId="1879063939" longitude="-4.6008887" latitude="-29.900723"/>
<marker id="460414977" label="Champion Trainer" category="42" did="1879059912" parentZoneId="1879063939" longitude="-4.6931443" latitude="-29.84253"/>
<marker id="460414978" label="The Spire of Meeting" category="43" did="1879063811" parentZoneId="1879063939" longitude="-4.7758594" latitude="-29.867147"/>
<marker id="460419072" label="Hidhuinen" category="43" did="1879063812" parentZoneId="1879063939" longitude="-4.959082" latitude="-28.731424"/>
<marker id="460447744" label="Snárskrith Dell" category="43" did="1879063813" parentZoneId="1879063941" longitude="-4.575801" latitude="-23.078623"/>
<marker id="460447745" label="Corpse" category="72" did="1879080416" parentZoneId="1879063941" longitude="-4.929824" latitude="-22.822557"/>
<marker id="460447746" label="Corpse" category="72" did="1879080416" parentZoneId="1879063941" longitude="-4.497871" latitude="-23.137665"/>
<marker id="460447747" label="Corpse" category="72" did="1879080416" parentZoneId="1879063941" longitude="-4.664072" latitude="-22.98794"/>
<marker id="460447748" label="Corpse" category="72" did="1879080416" parentZoneId="1879063941" longitude="-4.6018457" latitude="-23.130869"/>
<marker id="460447749" label="Snow-beast Hurler" category="71" did="1879080421" parentZoneId="1879063941" longitude="-4.63292" latitude="-22.96747"/>
<marker id="460447750" label="Elusive Snow-beast" category="71" did="1879080422" parentZoneId="1879063941" longitude="-4.63292" latitude="-22.96747"/>
<marker id="460447751" label="Snow-beast Hurler" category="71" did="1879080421" parentZoneId="1879063941" longitude="-4.512607" latitude="-23.0804"/>
<marker id="460447752" label="Elusive Snow-beast" category="71" did="1879080422" parentZoneId="1879063941" longitude="-4.512607" latitude="-23.0804"/>
<marker id="460447753" label="Snow-beast Hurler" category="71" did="1879080421" parentZoneId="1879063941" longitude="-4.520742" latitude="-23.137089"/>
<marker id="460447754" label="Elusive Snow-beast" category="71" did="1879080422" parentZoneId="1879063941" longitude="-4.520742" latitude="-23.137089"/>
<marker id="460447755" label="Snow-beast Hurler" category="71" did="1879080421" parentZoneId="1879063941" longitude="-4.5839257" latitude="-23.125996"/>
<marker id="460447756" label="Elusive Snow-beast" category="71" did="1879080422" parentZoneId="1879063941" longitude="-4.5839257" latitude="-23.125996"/>
<marker id="460447757" label="Snow-beast Hurler" category="71" did="1879080421" parentZoneId="1879063941" longitude="-4.6043653" latitude="-23.03915"/>
<marker id="460447758" label="Elusive Snow-beast" category="71" did="1879080422" parentZoneId="1879063941" longitude="-4.6043653" latitude="-23.03915"/>
<marker id="460451840" label="Snow-beast Hurler" category="71" did="1879080421" parentZoneId="1879063941" longitude="-4.921533" latitude="-22.57668"/>
<marker id="460451841" label="Elusive Snow-beast" category="71" did="1879080422" parentZoneId="1879063941" longitude="-4.921533" latitude="-22.57668"/>
<marker id="460451842" label="Snow-beast Hurler" category="71" did="1879080421" parentZoneId="1879063941" longitude="-4.945498" latitude="-22.59997"/>
<marker id="460451843" label="Elusive Snow-beast" category="71" did="1879080422" parentZoneId="1879063941" longitude="-4.945498" latitude="-22.59997"/>
<marker id="460451844" label="Snow-beast Hurler" category="71" did="1879080421" parentZoneId="1879063941" longitude="-4.93459" latitude="-22.632607"/>
<marker id="460451845" label="Elusive Snow-beast" category="71" did="1879080422" parentZoneId="1879063941" longitude="-4.93459" latitude="-22.632607"/>
<marker id="460451846" label="Snow-beast Hurler" category="71" did="1879080421" parentZoneId="1879063941" longitude="-4.93999" latitude="-22.784433"/>
<marker id="460451847" label="Elusive Snow-beast" category="71" did="1879080422" parentZoneId="1879063941" longitude="-4.93999" latitude="-22.784433"/>
<marker id="460451848" label="Snow-beast Hurler" category="71" did="1879080421" parentZoneId="1879063941" longitude="-4.898896" latitude="-22.783516"/>
<marker id="460451849" label="Elusive Snow-beast" category="71" did="1879080422" parentZoneId="1879063941" longitude="-4.898896" latitude="-22.783516"/>
<marker id="460451850" label="Snow-beast Hurler" category="71" did="1879080421" parentZoneId="1879063941" longitude="-4.93624" latitude="-22.717157"/>
<marker id="460451851" label="Elusive Snow-beast" category="71" did="1879080422" parentZoneId="1879063941" longitude="-4.93624" latitude="-22.717157"/>
<marker id="460451852" label="Snow-beast Hurler" category="71" did="1879080421" parentZoneId="1879063941" longitude="-4.867568" latitude="-22.72795"/>
<marker id="460451853" label="Elusive Snow-beast" category="71" did="1879080422" parentZoneId="1879063941" longitude="-4.867568" latitude="-22.72795"/>
<marker id="460451854" label="Snow-beast Hurler" category="71" did="1879080421" parentZoneId="1879063941" longitude="-4.7051463" latitude="-22.577343"/>
<marker id="460451855" label="Elusive Snow-beast" category="71" did="1879080422" parentZoneId="1879063941" longitude="-4.7051463" latitude="-22.577343"/>
<marker id="460451856" label="Snow-beast Hurler" category="71" did="1879080421" parentZoneId="1879063941" longitude="-4.654492" latitude="-22.46285"/>
<marker id="460451857" label="Elusive Snow-beast" category="71" did="1879080422" parentZoneId="1879063941" longitude="-4.654492" latitude="-22.46285"/>
<marker id="460451858" label="Snow-beast Hurler" category="71" did="1879080421" parentZoneId="1879063941" longitude="-4.5552244" latitude="-22.63829"/>
<marker id="460451859" label="Elusive Snow-beast" category="71" did="1879080422" parentZoneId="1879063941" longitude="-4.5552244" latitude="-22.63829"/>
<marker id="460451860" label="Snow-beast Hurler" category="71" did="1879080421" parentZoneId="1879063941" longitude="-4.4988575" latitude="-22.48713"/>
<marker id="460451861" label="Elusive Snow-beast" category="71" did="1879080422" parentZoneId="1879063941" longitude="-4.4988575" latitude="-22.48713"/>
<marker id="460451862" label="Snow-beast Hurler" category="71" did="1879080421" parentZoneId="1879063941" longitude="-4.4866505" latitude="-22.358076"/>
<marker id="460451863" label="Elusive Snow-beast" category="71" did="1879080422" parentZoneId="1879063941" longitude="-4.4866505" latitude="-22.358076"/>
<marker id="460451864" label="Snow-beast Hurler" category="71" did="1879080421" parentZoneId="1879063941" longitude="-4.4749513" latitude="-22.194483"/>
<marker id="460451865" label="Elusive Snow-beast" category="71" did="1879080422" parentZoneId="1879063941" longitude="-4.4749513" latitude="-22.194483"/>
<marker id="460451866" label="Snow-beast Hurler" category="71" did="1879080421" parentZoneId="1879063941" longitude="-4.588242" latitude="-22.17043"/>
<marker id="460451867" label="Elusive Snow-beast" category="71" did="1879080422" parentZoneId="1879063941" longitude="-4.588242" latitude="-22.17043"/>
<marker id="460451868" label="Snow-beast Hurler" category="71" did="1879080421" parentZoneId="1879063941" longitude="-4.717744" latitude="-22.114355"/>
<marker id="460451869" label="Elusive Snow-beast" category="71" did="1879080422" parentZoneId="1879063941" longitude="-4.717744" latitude="-22.114355"/>
<marker id="460451870" label="Snow-beast Hurler" category="71" did="1879080421" parentZoneId="1879063941" longitude="-4.837734" latitude="-22.07117"/>
<marker id="460451871" label="Elusive Snow-beast" category="71" did="1879080422" parentZoneId="1879063941" longitude="-4.837734" latitude="-22.07117"/>
<marker id="460451872" label="Snow-beast Hurler" category="71" did="1879080421" parentZoneId="1879063941" longitude="-4.8936524" latitude="-22.595947"/>
<marker id="460451873" label="Elusive Snow-beast" category="71" did="1879080422" parentZoneId="1879063941" longitude="-4.8936524" latitude="-22.595947"/>
<marker id="460476416" label="The Falls of Imladris" category="43" did="1879063815" parentZoneId="1879063939" longitude="-3.7554393" latitude="-30.206171"/>
<marker id="460480512" label="Vault-keeper" category="40" did="1879063817" parentZoneId="1879063939" longitude="-3.7147558" latitude="-29.635448"/>
<marker id="460480513" label="Reflecting Pool" category="52" did="1879080455" parentZoneId="1879063939" longitude="-3.777334" latitude="-29.469257"/>
<marker id="460484608" label="Captain Trainer" category="42" did="1879053085" parentZoneId="1879063939" longitude="-4.1939745" latitude="-28.759666"/>
<marker id="460484609" label="The Haven of Orladion" category="43" did="1879063818" parentZoneId="1879063939" longitude="-3.7148633" latitude="-28.896376"/>
<marker id="460505088" label="Supplier" category="38" did="1879063819" parentZoneId="1879063941" longitude="-4.1009765" latitude="-24.90619"/>
<marker id="460505089" label="Glóin's Camp" category="41" did="1879063820" parentZoneId="1879063941" longitude="-3.9910643" latitude="-24.750654"/>
<marker id="460505090" label="Milestone" category="55" did="1879063371" parentZoneId="1879063941" longitude="-4.060547" latitude="-24.845976"/>
<marker id="460513280" label="Snow-lurker" category="71" did="1879080448" parentZoneId="1879063941" longitude="-3.7279003" latitude="-22.942207"/>
<marker id="460513281" label="Snowy Lynx" category="71" did="1879080449" parentZoneId="1879063941" longitude="-3.7279003" latitude="-22.942207"/>
<marker id="460513282" label="Snow-mantle Bull" category="71" did="1879080450" parentZoneId="1879063941" longitude="-3.7279003" latitude="-22.942207"/>
<marker id="460513283" label="Snow-mantle Matron" category="71" did="1879080451" parentZoneId="1879063941" longitude="-3.7279003" latitude="-22.942207"/>
<marker id="460513284" label="Snow-beast Hurler" category="71" did="1879080421" parentZoneId="1879063941" longitude="-3.7279003" latitude="-22.942207"/>
<marker id="460513285" label="Elusive Snow-beast" category="71" did="1879080422" parentZoneId="1879063941" longitude="-3.7279003" latitude="-22.942207"/>
<marker id="460513286" label="Large Snow-bear" category="71" did="1879080447" parentZoneId="1879063941" longitude="-3.7279003" latitude="-22.942207"/>
<marker id="460513287" label="Snow-lurker" category="71" did="1879080448" parentZoneId="1879063941" longitude="-3.6674414" latitude="-23.116737"/>
<marker id="460513288" label="Snowy Lynx" category="71" did="1879080449" parentZoneId="1879063941" longitude="-3.6674414" latitude="-23.116737"/>
<marker id="460513289" label="Snow-mantle Bull" category="71" did="1879080450" parentZoneId="1879063941" longitude="-3.6674414" latitude="-23.116737"/>
<marker id="460513290" label="Snow-mantle Matron" category="71" did="1879080451" parentZoneId="1879063941" longitude="-3.6674414" latitude="-23.116737"/>
<marker id="460513291" label="Snow-beast Hurler" category="71" did="1879080421" parentZoneId="1879063941" longitude="-3.6674414" latitude="-23.116737"/>
<marker id="460513292" label="Elusive Snow-beast" category="71" did="1879080422" parentZoneId="1879063941" longitude="-3.6674414" latitude="-23.116737"/>
<marker id="460513293" label="Large Snow-bear" category="71" did="1879080447" parentZoneId="1879063941" longitude="-3.6674414" latitude="-23.116737"/>
<marker id="460513294" label="Snow-lurker" category="71" did="1879080448" parentZoneId="1879063941" longitude="-3.743828" latitude="-23.274042"/>
<marker id="460513295" label="Snowy Lynx" category="71" did="1879080449" parentZoneId="1879063941" longitude="-3.743828" latitude="-23.274042"/>
<marker id="460513296" label="Snow-mantle Bull" category="71" did="1879080450" parentZoneId="1879063941" longitude="-3.743828" latitude="-23.274042"/>
<marker id="460513297" label="Snow-mantle Matron" category="71" did="1879080451" parentZoneId="1879063941" longitude="-3.743828" latitude="-23.274042"/>
<marker id="460513298" label="Snow-beast Hurler" category="71" did="1879080421" parentZoneId="1879063941" longitude="-3.743828" latitude="-23.274042"/>
<marker id="460513299" label="Elusive Snow-beast" category="71" did="1879080422" parentZoneId="1879063941" longitude="-3.743828" latitude="-23.274042"/>
<marker id="460513300" label="Large Snow-bear" category="71" did="1879080447" parentZoneId="1879063941" longitude="-3.743828" latitude="-23.274042"/>
<marker id="460513301" label="Snow-lurker" category="71" did="1879080448" parentZoneId="1879063941" longitude="-3.8190625" latitude="-23.110596"/>
<marker id="460513302" label="Snowy Lynx" category="71" did="1879080449" parentZoneId="1879063941" longitude="-3.8190625" latitude="-23.110596"/>
<marker id="460513303" label="Snow-mantle Bull" category="71" did="1879080450" parentZoneId="1879063941" longitude="-3.8190625" latitude="-23.110596"/>
<marker id="460513304" label="Snow-mantle Matron" category="71" did="1879080451" parentZoneId="1879063941" longitude="-3.8190625" latitude="-23.110596"/>
<marker id="460513305" label="Snow-beast Hurler" category="71" did="1879080421" parentZoneId="1879063941" longitude="-3.8190625" latitude="-23.110596"/>
<marker id="460513306" label="Elusive Snow-beast" category="71" did="1879080422" parentZoneId="1879063941" longitude="-3.8190625" latitude="-23.110596"/>
<marker id="460513307" label="Large Snow-bear" category="71" did="1879080447" parentZoneId="1879063941" longitude="-3.8190625" latitude="-23.110596"/>
<marker id="460513308" label="Snow-lurker" category="71" did="1879080448" parentZoneId="1879063941" longitude="-3.955" latitude="-23.038954"/>
<marker id="460513309" label="Snowy Lynx" category="71" did="1879080449" parentZoneId="1879063941" longitude="-3.955" latitude="-23.038954"/>
<marker id="460513310" label="Snow-mantle Bull" category="71" did="1879080450" parentZoneId="1879063941" longitude="-3.955" latitude="-23.038954"/>
<marker id="460513311" label="Snow-mantle Matron" category="71" did="1879080451" parentZoneId="1879063941" longitude="-3.955" latitude="-23.038954"/>
<marker id="460513312" label="Snow-beast Hurler" category="71" did="1879080421" parentZoneId="1879063941" longitude="-3.955" latitude="-23.038954"/>
<marker id="460513313" label="Elusive Snow-beast" category="71" did="1879080422" parentZoneId="1879063941" longitude="-3.955" latitude="-23.038954"/>
<marker id="460513314" label="Large Snow-bear" category="71" did="1879080447" parentZoneId="1879063941" longitude="-3.955" latitude="-23.038954"/>
<marker id="460513315" label="Snow-lurker" category="71" did="1879080448" parentZoneId="1879063941" longitude="-3.9627929" latitude="-23.17293"/>
<marker id="460513316" label="Snowy Lynx" category="71" did="1879080449" parentZoneId="1879063941" longitude="-3.9627929" latitude="-23.17293"/>
<marker id="460513317" label="Snow-mantle Bull" category="71" did="1879080450" parentZoneId="1879063941" longitude="-3.9627929" latitude="-23.17293"/>
<marker id="460513318" label="Snow-mantle Matron" category="71" did="1879080451" parentZoneId="1879063941" longitude="-3.9627929" latitude="-23.17293"/>
<marker id="460513319" label="Snow-beast Hurler" category="71" did="1879080421" parentZoneId="1879063941" longitude="-3.9627929" latitude="-23.17293"/>
<marker id="460513320" label="Elusive Snow-beast" category="71" did="1879080422" parentZoneId="1879063941" longitude="-3.9627929" latitude="-23.17293"/>
<marker id="460513321" label="Large Snow-bear" category="71" did="1879080447" parentZoneId="1879063941" longitude="-3.9627929" latitude="-23.17293"/>
<marker id="460513322" label="Snow-lurker" category="71" did="1879080448" parentZoneId="1879063941" longitude="-4.162256" latitude="-22.989462"/>
<marker id="460513323" label="Snowy Lynx" category="71" did="1879080449" parentZoneId="1879063941" longitude="-4.162256" latitude="-22.989462"/>
<marker id="460513324" label="Snow-mantle Bull" category="71" did="1879080450" parentZoneId="1879063941" longitude="-4.162256" latitude="-22.989462"/>
<marker id="460513325" label="Snow-mantle Matron" category="71" did="1879080451" parentZoneId="1879063941" longitude="-4.162256" latitude="-22.989462"/>
<marker id="460513326" label="Snow-beast Hurler" category="71" did="1879080421" parentZoneId="1879063941" longitude="-4.162256" latitude="-22.989462"/>
<marker id="460513327" label="Elusive Snow-beast" category="71" did="1879080422" parentZoneId="1879063941" longitude="-4.162256" latitude="-22.989462"/>
<marker id="460513328" label="Large Snow-bear" category="71" did="1879080447" parentZoneId="1879063941" longitude="-4.162256" latitude="-22.989462"/>
<marker id="460513329" label="Snow-beast Hurler" category="71" did="1879080421" parentZoneId="1879063941" longitude="-4.083662" latitude="-23.103613"/>
<marker id="460513330" label="Elusive Snow-beast" category="71" did="1879080422" parentZoneId="1879063941" longitude="-4.083662" latitude="-23.103613"/>
<marker id="460513331" label="Snow-beast Hurler" category="71" did="1879080421" parentZoneId="1879063941" longitude="-4.1087794" latitude="-23.145987"/>
<marker id="460513332" label="Elusive Snow-beast" category="71" did="1879080422" parentZoneId="1879063941" longitude="-4.1087794" latitude="-23.145987"/>
<marker id="460513333" label="Snow-beast Hurler" category="71" did="1879080421" parentZoneId="1879063941" longitude="-4.066836" latitude="-23.174551"/>
<marker id="460513334" label="Elusive Snow-beast" category="71" did="1879080422" parentZoneId="1879063941" longitude="-4.066836" latitude="-23.174551"/>
<marker id="460513335" label="Snow-beast Hurler" category="71" did="1879080421" parentZoneId="1879063941" longitude="-3.9904492" latitude="-23.231709"/>
<marker id="460513336" label="Elusive Snow-beast" category="71" did="1879080422" parentZoneId="1879063941" longitude="-3.9904492" latitude="-23.231709"/>
<marker id="460513337" label="Snow-beast Hurler" category="71" did="1879080421" parentZoneId="1879063941" longitude="-3.9969041" latitude="-23.130772"/>
<marker id="460513338" label="Elusive Snow-beast" category="71" did="1879080422" parentZoneId="1879063941" longitude="-3.9969041" latitude="-23.130772"/>
<marker id="460513339" label="Snow-beast Hurler" category="71" did="1879080421" parentZoneId="1879063941" longitude="-4.0237107" latitude="-23.016493"/>
<marker id="460513340" label="Elusive Snow-beast" category="71" did="1879080422" parentZoneId="1879063941" longitude="-4.0237107" latitude="-23.016493"/>
<marker id="460513341" label="Snow-beast Hurler" category="71" did="1879080421" parentZoneId="1879063941" longitude="-3.860654" latitude="-23.074276"/>
<marker id="460513342" label="Elusive Snow-beast" category="71" did="1879080422" parentZoneId="1879063941" longitude="-3.860654" latitude="-23.074276"/>
<marker id="460517376" label="Stonecaller's Circle" category="43" did="1879063821" parentZoneId="1879063941" longitude="-3.9602149" latitude="-22.475586"/>
<marker id="460517377" label="Snow-beast Hurler" category="71" did="1879080421" parentZoneId="1879063941" longitude="-4.0402246" latitude="-22.475311"/>
<marker id="460517378" label="Elusive Snow-beast" category="71" did="1879080422" parentZoneId="1879063941" longitude="-4.0402246" latitude="-22.475311"/>
<marker id="460517379" label="Snow-beast Hurler" category="71" did="1879080421" parentZoneId="1879063941" longitude="-4.0371776" latitude="-22.417606"/>
<marker id="460517380" label="Elusive Snow-beast" category="71" did="1879080422" parentZoneId="1879063941" longitude="-4.0371776" latitude="-22.417606"/>
<marker id="460517381" label="Snow-beast Hurler" category="71" did="1879080421" parentZoneId="1879063941" longitude="-3.9756346" latitude="-22.422363"/>
<marker id="460517382" label="Elusive Snow-beast" category="71" did="1879080422" parentZoneId="1879063941" longitude="-3.9756346" latitude="-22.422363"/>
<marker id="460517383" label="Snow-lurker" category="71" did="1879080448" parentZoneId="1879063941" longitude="-4.18001" latitude="-22.348427"/>
<marker id="460517384" label="Snowy Lynx" category="71" did="1879080449" parentZoneId="1879063941" longitude="-4.18001" latitude="-22.348427"/>
<marker id="460517385" label="Snow-mantle Bull" category="71" did="1879080450" parentZoneId="1879063941" longitude="-4.18001" latitude="-22.348427"/>
<marker id="460517386" label="Snow-mantle Matron" category="71" did="1879080451" parentZoneId="1879063941" longitude="-4.18001" latitude="-22.348427"/>
<marker id="460517387" label="Snow-beast Hurler" category="71" did="1879080421" parentZoneId="1879063941" longitude="-4.18001" latitude="-22.348427"/>
<marker id="460517388" label="Elusive Snow-beast" category="71" did="1879080422" parentZoneId="1879063941" longitude="-4.18001" latitude="-22.348427"/>
<marker id="460517389" label="Large Snow-bear" category="71" did="1879080447" parentZoneId="1879063941" longitude="-4.18001" latitude="-22.348427"/>
<marker id="460517390" label="Snow-lurker" category="71" did="1879080448" parentZoneId="1879063941" longitude="-4.0955663" latitude="-22.192295"/>
<marker id="460517391" label="Snowy Lynx" category="71" did="1879080449" parentZoneId="1879063941" longitude="-4.0955663" latitude="-22.192295"/>
<marker id="460517392" label="Snow-mantle Bull" category="71" did="1879080450" parentZoneId="1879063941" longitude="-4.0955663" latitude="-22.192295"/>
<marker id="460517393" label="Snow-mantle Matron" category="71" did="1879080451" parentZoneId="1879063941" longitude="-4.0955663" latitude="-22.192295"/>
<marker id="460517394" label="Snow-beast Hurler" category="71" did="1879080421" parentZoneId="1879063941" longitude="-4.0955663" latitude="-22.192295"/>
<marker id="460517395" label="Elusive Snow-beast" category="71" did="1879080422" parentZoneId="1879063941" longitude="-4.0955663" latitude="-22.192295"/>
<marker id="460517396" label="Large Snow-bear" category="71" did="1879080447" parentZoneId="1879063941" longitude="-4.0955663" latitude="-22.192295"/>
<marker id="460517397" label="Snow-lurker" category="71" did="1879080448" parentZoneId="1879063941" longitude="-3.9185448" latitude="-22.139355"/>
<marker id="460517398" label="Snowy Lynx" category="71" did="1879080449" parentZoneId="1879063941" longitude="-3.9185448" latitude="-22.139355"/>
<marker id="460517399" label="Snow-mantle Bull" category="71" did="1879080450" parentZoneId="1879063941" longitude="-3.9185448" latitude="-22.139355"/>
<marker id="460517400" label="Snow-mantle Matron" category="71" did="1879080451" parentZoneId="1879063941" longitude="-3.9185448" latitude="-22.139355"/>
<marker id="460517401" label="Snow-beast Hurler" category="71" did="1879080421" parentZoneId="1879063941" longitude="-3.9185448" latitude="-22.139355"/>
<marker id="460517402" label="Elusive Snow-beast" category="71" did="1879080422" parentZoneId="1879063941" longitude="-3.9185448" latitude="-22.139355"/>
<marker id="460517403" label="Large Snow-bear" category="71" did="1879080447" parentZoneId="1879063941" longitude="-3.9185448" latitude="-22.139355"/>
<marker id="460517404" label="Snow-lurker" category="71" did="1879080448" parentZoneId="1879063941" longitude="-4.1260056" latitude="-22.055517"/>
<marker id="460517405" label="Snowy Lynx" category="71" did="1879080449" parentZoneId="1879063941" longitude="-4.1260056" latitude="-22.055517"/>
<marker id="460517406" label="Snow-mantle Bull" category="71" did="1879080450" parentZoneId="1879063941" longitude="-4.1260056" latitude="-22.055517"/>
<marker id="460517407" label="Snow-mantle Matron" category="71" did="1879080451" parentZoneId="1879063941" longitude="-4.1260056" latitude="-22.055517"/>
<marker id="460517408" label="Snow-beast Hurler" category="71" did="1879080421" parentZoneId="1879063941" longitude="-4.1260056" latitude="-22.055517"/>
<marker id="460517409" label="Elusive Snow-beast" category="71" did="1879080422" parentZoneId="1879063941" longitude="-4.1260056" latitude="-22.055517"/>
<marker id="460517410" label="Large Snow-bear" category="71" did="1879080447" parentZoneId="1879063941" longitude="-4.1260056" latitude="-22.055517"/>
<marker id="460517411" label="Snow-lurker" category="71" did="1879080448" parentZoneId="1879063941" longitude="-3.6793065" latitude="-22.627295"/>
<marker id="460517412" label="Snowy Lynx" category="71" did="1879080449" parentZoneId="1879063941" longitude="-3.6793065" latitude="-22.627295"/>
<marker id="460517413" label="Snow-mantle Bull" category="71" did="1879080450" parentZoneId="1879063941" longitude="-3.6793065" latitude="-22.627295"/>
<marker id="460517414" label="Snow-mantle Matron" category="71" did="1879080451" parentZoneId="1879063941" longitude="-3.6793065" latitude="-22.627295"/>
<marker id="460517415" label="Snow-beast Hurler" category="71" did="1879080421" parentZoneId="1879063941" longitude="-3.6793065" latitude="-22.627295"/>
<marker id="460517416" label="Elusive Snow-beast" category="71" did="1879080422" parentZoneId="1879063941" longitude="-3.6793065" latitude="-22.627295"/>
<marker id="460517417" label="Large Snow-bear" category="71" did="1879080447" parentZoneId="1879063941" longitude="-3.6793065" latitude="-22.627295"/>
<marker id="460517418" label="Snow-lurker" category="71" did="1879080448" parentZoneId="1879063941" longitude="-4.0912986" latitude="-22.702763"/>
<marker id="460517419" label="Snowy Lynx" category="71" did="1879080449" parentZoneId="1879063941" longitude="-4.0912986" latitude="-22.702763"/>
<marker id="460517420" label="Snow-mantle Bull" category="71" did="1879080450" parentZoneId="1879063941" longitude="-4.0912986" latitude="-22.702763"/>
<marker id="460517421" label="Snow-mantle Matron" category="71" did="1879080451" parentZoneId="1879063941" longitude="-4.0912986" latitude="-22.702763"/>
<marker id="460517422" label="Snow-beast Hurler" category="71" did="1879080421" parentZoneId="1879063941" longitude="-4.0912986" latitude="-22.702763"/>
<marker id="460517423" label="Elusive Snow-beast" category="71" did="1879080422" parentZoneId="1879063941" longitude="-4.0912986" latitude="-22.702763"/>
<marker id="460517424" label="Large Snow-bear" category="71" did="1879080447" parentZoneId="1879063941" longitude="-4.0912986" latitude="-22.702763"/>
<marker id="460517425" label="Snow-beast Hurler" category="71" did="1879080421" parentZoneId="1879063941" longitude="-4.1153517" latitude="-22.530302"/>
<marker id="460517426" label="Elusive Snow-beast" category="71" did="1879080422" parentZoneId="1879063941" longitude="-4.1153517" latitude="-22.530302"/>
<marker id="460517427" label="Snow-beast Hurler" category="71" did="1879080421" parentZoneId="1879063941" longitude="-3.9624803" latitude="-22.511581"/>
<marker id="460517428" label="Elusive Snow-beast" category="71" did="1879080422" parentZoneId="1879063941" longitude="-3.9624803" latitude="-22.511581"/>
<marker id="460517429" label="Snow-beast Hurler" category="71" did="1879080421" parentZoneId="1879063941" longitude="-3.8672655" latitude="-22.265907"/>
<marker id="460517430" label="Elusive Snow-beast" category="71" did="1879080422" parentZoneId="1879063941" longitude="-3.8672655" latitude="-22.265907"/>
<marker id="460517431" label="Snow-beast Hurler" category="71" did="1879080421" parentZoneId="1879063941" longitude="-3.9765723" latitude="-22.738827"/>
<marker id="460517432" label="Elusive Snow-beast" category="71" did="1879080422" parentZoneId="1879063941" longitude="-3.9765723" latitude="-22.738827"/>
<marker id="460517433" label="Snow-beast Hurler" category="71" did="1879080421" parentZoneId="1879063941" longitude="-3.9794824" latitude="-22.493631"/>
<marker id="460517434" label="Elusive Snow-beast" category="71" did="1879080422" parentZoneId="1879063941" longitude="-3.9794824" latitude="-22.493631"/>
<marker id="460546048" label="Minstrel Trainer" category="42" did="1879052941" parentZoneId="1879063939" longitude="-3.4063475" latitude="-29.83252"/>
<marker id="460546049" label="Lore-master Trainer" category="42" did="1879052322" parentZoneId="1879063939" longitude="-3.4363475" latitude="-29.628143"/>
<marker id="460546050" label="Burglar Trainer" category="42" did="1879052042" parentZoneId="1879063939" longitude="-3.316084" latitude="-29.85576"/>
<marker id="460546051" label="The Last Homely House" category="43" did="1879063822" parentZoneId="1879063939" longitude="-3.2910058" latitude="-29.638485"/>
<marker id="460546052" label="Clerk of Kinships" category="38" did="1879063823" parentZoneId="1879063939" longitude="-3.3633494" latitude="-29.852802"/>
<marker id="460550144" label="Auctioneer" category="53" did="1879063824" parentZoneId="1879063939" longitude="-3.1977441" latitude="-28.942783"/>
<marker id="460550145" label="Auctioneer" category="53" did="1879063824" parentZoneId="1879063939" longitude="-3.0220702" latitude="-28.985468"/>
<marker id="460550146" label="Auctioneer" category="53" did="1879063824" parentZoneId="1879063939" longitude="-3.2602246" latitude="-28.864891"/>
<marker id="460566528" label="Cirith Imladris" category="43" did="1879063825" parentZoneId="1879063941" longitude="-3.482461" latitude="-25.410488"/>
<marker id="460570624" label="Snow-lurker" category="71" did="1879080448" parentZoneId="1879063941" longitude="-3.4760938" latitude="-24.621561"/>
<marker id="460570625" label="Snowy Lynx" category="71" did="1879080449" parentZoneId="1879063941" longitude="-3.4760938" latitude="-24.621561"/>
<marker id="460570626" label="Snow-mantle Bull" category="71" did="1879080450" parentZoneId="1879063941" longitude="-3.4760938" latitude="-24.621561"/>
<marker id="460570627" label="Snow-mantle Matron" category="71" did="1879080451" parentZoneId="1879063941" longitude="-3.4760938" latitude="-24.621561"/>
<marker id="460570628" label="Snow-beast Hurler" category="71" did="1879080421" parentZoneId="1879063941" longitude="-3.4760938" latitude="-24.621561"/>
<marker id="460570629" label="Elusive Snow-beast" category="71" did="1879080422" parentZoneId="1879063941" longitude="-3.4760938" latitude="-24.621561"/>
<marker id="460570630" label="Large Snow-bear" category="71" did="1879080447" parentZoneId="1879063941" longitude="-3.4760938" latitude="-24.621561"/>
<marker id="460570631" label="Snow-lurker" category="71" did="1879080448" parentZoneId="1879063941" longitude="-3.4999413" latitude="-24.782812"/>
<marker id="460570632" label="Snowy Lynx" category="71" did="1879080449" parentZoneId="1879063941" longitude="-3.4999413" latitude="-24.782812"/>
<marker id="460570633" label="Snow-mantle Bull" category="71" did="1879080450" parentZoneId="1879063941" longitude="-3.4999413" latitude="-24.782812"/>
<marker id="460570634" label="Snow-mantle Matron" category="71" did="1879080451" parentZoneId="1879063941" longitude="-3.4999413" latitude="-24.782812"/>
<marker id="460570635" label="Snow-beast Hurler" category="71" did="1879080421" parentZoneId="1879063941" longitude="-3.4999413" latitude="-24.782812"/>
<marker id="460570636" label="Elusive Snow-beast" category="71" did="1879080422" parentZoneId="1879063941" longitude="-3.4999413" latitude="-24.782812"/>
<marker id="460570637" label="Large Snow-bear" category="71" did="1879080447" parentZoneId="1879063941" longitude="-3.4999413" latitude="-24.782812"/>
<marker id="460570638" label="Snow-lurker" category="71" did="1879080448" parentZoneId="1879063941" longitude="-3.3665135" latitude="-24.95291"/>
<marker id="460570639" label="Snowy Lynx" category="71" did="1879080449" parentZoneId="1879063941" longitude="-3.3665135" latitude="-24.95291"/>
<marker id="460570640" label="Snow-mantle Bull" category="71" did="1879080450" parentZoneId="1879063941" longitude="-3.3665135" latitude="-24.95291"/>
<marker id="460570641" label="Snow-mantle Matron" category="71" did="1879080451" parentZoneId="1879063941" longitude="-3.3665135" latitude="-24.95291"/>
<marker id="460570642" label="Snow-beast Hurler" category="71" did="1879080421" parentZoneId="1879063941" longitude="-3.3665135" latitude="-24.95291"/>
<marker id="460570643" label="Elusive Snow-beast" category="71" did="1879080422" parentZoneId="1879063941" longitude="-3.3665135" latitude="-24.95291"/>
<marker id="460570644" label="Large Snow-bear" category="71" did="1879080447" parentZoneId="1879063941" longitude="-3.3665135" latitude="-24.95291"/>
<marker id="460570645" label="Snow-lurker" category="71" did="1879080448" parentZoneId="1879063941" longitude="-3.3501368" latitude="-25.133564"/>
<marker id="460570646" label="Snowy Lynx" category="71" did="1879080449" parentZoneId="1879063941" longitude="-3.3501368" latitude="-25.133564"/>
<marker id="460570647" label="Snow-mantle Bull" category="71" did="1879080450" parentZoneId="1879063941" longitude="-3.3501368" latitude="-25.133564"/>
<marker id="460570648" label="Snow-mantle Matron" category="71" did="1879080451" parentZoneId="1879063941" longitude="-3.3501368" latitude="-25.133564"/>
<marker id="460570649" label="Snow-beast Hurler" category="71" did="1879080421" parentZoneId="1879063941" longitude="-3.3501368" latitude="-25.133564"/>
<marker id="460570650" label="Elusive Snow-beast" category="71" did="1879080422" parentZoneId="1879063941" longitude="-3.3501368" latitude="-25.133564"/>
<marker id="460570651" label="Large Snow-bear" category="71" did="1879080447" parentZoneId="1879063941" longitude="-3.3501368" latitude="-25.133564"/>
<marker id="460570652" label="Snow-lurker" category="71" did="1879080448" parentZoneId="1879063941" longitude="-3.0949903" latitude="-25.02749"/>
<marker id="460570653" label="Snowy Lynx" category="71" did="1879080449" parentZoneId="1879063941" longitude="-3.0949903" latitude="-25.02749"/>
<marker id="460570654" label="Snow-mantle Bull" category="71" did="1879080450" parentZoneId="1879063941" longitude="-3.0949903" latitude="-25.02749"/>
<marker id="460570655" label="Snow-mantle Matron" category="71" did="1879080451" parentZoneId="1879063941" longitude="-3.0949903" latitude="-25.02749"/>
<marker id="460570656" label="Snow-beast Hurler" category="71" did="1879080421" parentZoneId="1879063941" longitude="-3.0949903" latitude="-25.02749"/>
<marker id="460570657" label="Elusive Snow-beast" category="71" did="1879080422" parentZoneId="1879063941" longitude="-3.0949903" latitude="-25.02749"/>
<marker id="460570658" label="Large Snow-bear" category="71" did="1879080447" parentZoneId="1879063941" longitude="-3.0949903" latitude="-25.02749"/>
<marker id="460570659" label="Snow-lurker" category="71" did="1879080448" parentZoneId="1879063941" longitude="-3.1854491" latitude="-24.77284"/>
<marker id="460570660" label="Snowy Lynx" category="71" did="1879080449" parentZoneId="1879063941" longitude="-3.1854491" latitude="-24.77284"/>
<marker id="460570661" label="Snow-mantle Bull" category="71" did="1879080450" parentZoneId="1879063941" longitude="-3.1854491" latitude="-24.77284"/>
<marker id="460570662" label="Snow-mantle Matron" category="71" did="1879080451" parentZoneId="1879063941" longitude="-3.1854491" latitude="-24.77284"/>
<marker id="460570663" label="Snow-beast Hurler" category="71" did="1879080421" parentZoneId="1879063941" longitude="-3.1854491" latitude="-24.77284"/>
<marker id="460570664" label="Elusive Snow-beast" category="71" did="1879080422" parentZoneId="1879063941" longitude="-3.1854491" latitude="-24.77284"/>
<marker id="460570665" label="Large Snow-bear" category="71" did="1879080447" parentZoneId="1879063941" longitude="-3.1854491" latitude="-24.77284"/>
<marker id="460570666" label="Snow-lurker" category="71" did="1879080448" parentZoneId="1879063941" longitude="-3.233125" latitude="-24.537842"/>
<marker id="460570667" label="Snowy Lynx" category="71" did="1879080449" parentZoneId="1879063941" longitude="-3.233125" latitude="-24.537842"/>
<marker id="460570668" label="Snow-mantle Bull" category="71" did="1879080450" parentZoneId="1879063941" longitude="-3.233125" latitude="-24.537842"/>
<marker id="460570669" label="Snow-mantle Matron" category="71" did="1879080451" parentZoneId="1879063941" longitude="-3.233125" latitude="-24.537842"/>
<marker id="460570670" label="Snow-beast Hurler" category="71" did="1879080421" parentZoneId="1879063941" longitude="-3.233125" latitude="-24.537842"/>
<marker id="460570671" label="Elusive Snow-beast" category="71" did="1879080422" parentZoneId="1879063941" longitude="-3.233125" latitude="-24.537842"/>
<marker id="460570672" label="Large Snow-bear" category="71" did="1879080447" parentZoneId="1879063941" longitude="-3.233125" latitude="-24.537842"/>
<marker id="460570673" label="Snow-lurker" category="71" did="1879080448" parentZoneId="1879063941" longitude="-3.0011523" latitude="-24.52498"/>
<marker id="460570674" label="Snowy Lynx" category="71" did="1879080449" parentZoneId="1879063941" longitude="-3.0011523" latitude="-24.52498"/>
<marker id="460570675" label="Snow-mantle Bull" category="71" did="1879080450" parentZoneId="1879063941" longitude="-3.0011523" latitude="-24.52498"/>
<marker id="460570676" label="Snow-mantle Matron" category="71" did="1879080451" parentZoneId="1879063941" longitude="-3.0011523" latitude="-24.52498"/>
<marker id="460570677" label="Snow-beast Hurler" category="71" did="1879080421" parentZoneId="1879063941" longitude="-3.0011523" latitude="-24.52498"/>
<marker id="460570678" label="Elusive Snow-beast" category="71" did="1879080422" parentZoneId="1879063941" longitude="-3.0011523" latitude="-24.52498"/>
<marker id="460570679" label="Large Snow-bear" category="71" did="1879080447" parentZoneId="1879063941" longitude="-3.0011523" latitude="-24.52498"/>
<marker id="460570680" label="Snow-lurker" category="71" did="1879080448" parentZoneId="1879063941" longitude="-2.9844725" latitude="-24.692919"/>
<marker id="460570681" label="Snowy Lynx" category="71" did="1879080449" parentZoneId="1879063941" longitude="-2.9844725" latitude="-24.692919"/>
<marker id="460570682" label="Snow-mantle Bull" category="71" did="1879080450" parentZoneId="1879063941" longitude="-2.9844725" latitude="-24.692919"/>
<marker id="460570683" label="Snow-mantle Matron" category="71" did="1879080451" parentZoneId="1879063941" longitude="-2.9844725" latitude="-24.692919"/>
<marker id="460570684" label="Snow-beast Hurler" category="71" did="1879080421" parentZoneId="1879063941" longitude="-2.9844725" latitude="-24.692919"/>
<marker id="460570685" label="Elusive Snow-beast" category="71" did="1879080422" parentZoneId="1879063941" longitude="-2.9844725" latitude="-24.692919"/>
<marker id="460570686" label="Large Snow-bear" category="71" did="1879080447" parentZoneId="1879063941" longitude="-2.9844725" latitude="-24.692919"/>
<marker id="460570687" label="Snow-lurker" category="71" did="1879080448" parentZoneId="1879063941" longitude="-2.816533" latitude="-24.418447"/>
<marker id="460570688" label="Snowy Lynx" category="71" did="1879080449" parentZoneId="1879063941" longitude="-2.816533" latitude="-24.418447"/>
<marker id="460570689" label="Snow-mantle Bull" category="71" did="1879080450" parentZoneId="1879063941" longitude="-2.816533" latitude="-24.418447"/>
<marker id="460570690" label="Snow-mantle Matron" category="71" did="1879080451" parentZoneId="1879063941" longitude="-2.816533" latitude="-24.418447"/>
<marker id="460570691" label="Snow-beast Hurler" category="71" did="1879080421" parentZoneId="1879063941" longitude="-2.816533" latitude="-24.418447"/>
<marker id="460570692" label="Elusive Snow-beast" category="71" did="1879080422" parentZoneId="1879063941" longitude="-2.816533" latitude="-24.418447"/>
<marker id="460570693" label="Large Snow-bear" category="71" did="1879080447" parentZoneId="1879063941" longitude="-2.816533" latitude="-24.418447"/>
<marker id="460570694" label="Ancient Iron Deposit" category="50" did="1879080464" parentZoneId="1879063941" longitude="-2.8098729" latitude="-25.005663"/>
<marker id="460570695" label="Rich Platinum Deposit" category="50" did="1879087936" parentZoneId="1879063941" longitude="-2.8098729" latitude="-25.005663"/>
<marker id="460570696" label="Misty Mountain Silver Deposit" category="50" did="1879080465" parentZoneId="1879063941" longitude="-2.8098729" latitude="-25.005663"/>
<marker id="460570697" label="Rich Misty Mountain Silver Deposit" category="50" did="1879087937" parentZoneId="1879063941" longitude="-2.8098729" latitude="-25.005663"/>
<marker id="460570698" label="Heavy Black Ash Branches" category="50" did="1879087926" parentZoneId="1879063941" longitude="-2.8098729" latitude="-25.005663"/>
<marker id="460570699" label="Black Ash Branches" category="50" did="1879080458" parentZoneId="1879063941" longitude="-2.8098729" latitude="-25.005663"/>
<marker id="460570700" label="Rich Ancient Iron Deposit" category="50" did="1879087930" parentZoneId="1879063941" longitude="-2.8098729" latitude="-25.005663"/>
<marker id="460570701" label="Platinum Deposit" category="50" did="1879080463" parentZoneId="1879063941" longitude="-2.8098729" latitude="-25.005663"/>
<marker id="460570702" label="Ancient Iron Deposit" category="50" did="1879080464" parentZoneId="1879063941" longitude="-3.1159472" latitude="-24.49745"/>
<marker id="460570703" label="Rich Platinum Deposit" category="50" did="1879087936" parentZoneId="1879063941" longitude="-3.1159472" latitude="-24.49745"/>
<marker id="460570704" label="Misty Mountain Silver Deposit" category="50" did="1879080465" parentZoneId="1879063941" longitude="-3.1159472" latitude="-24.49745"/>
<marker id="460570705" label="Rich Misty Mountain Silver Deposit" category="50" did="1879087937" parentZoneId="1879063941" longitude="-3.1159472" latitude="-24.49745"/>
<marker id="460570706" label="Heavy Black Ash Branches" category="50" did="1879087926" parentZoneId="1879063941" longitude="-3.1159472" latitude="-24.49745"/>
<marker id="460570707" label="Black Ash Branches" category="50" did="1879080458" parentZoneId="1879063941" longitude="-3.1159472" latitude="-24.49745"/>
<marker id="460570708" label="Rich Ancient Iron Deposit" category="50" did="1879087930" parentZoneId="1879063941" longitude="-3.1159472" latitude="-24.49745"/>
<marker id="460570709" label="Platinum Deposit" category="50" did="1879080463" parentZoneId="1879063941" longitude="-3.1159472" latitude="-24.49745"/>
<marker id="460570710" label="Ancient Iron Deposit" category="50" did="1879080464" parentZoneId="1879063941" longitude="-3.0296874" latitude="-24.837471"/>
<marker id="460570711" label="Rich Platinum Deposit" category="50" did="1879087936" parentZoneId="1879063941" longitude="-3.0296874" latitude="-24.837471"/>
<marker id="460570712" label="Misty Mountain Silver Deposit" category="50" did="1879080465" parentZoneId="1879063941" longitude="-3.0296874" latitude="-24.837471"/>
<marker id="460570713" label="Rich Misty Mountain Silver Deposit" category="50" did="1879087937" parentZoneId="1879063941" longitude="-3.0296874" latitude="-24.837471"/>
<marker id="460570714" label="Heavy Black Ash Branches" category="50" did="1879087926" parentZoneId="1879063941" longitude="-3.0296874" latitude="-24.837471"/>
<marker id="460570715" label="Black Ash Branches" category="50" did="1879080458" parentZoneId="1879063941" longitude="-3.0296874" latitude="-24.837471"/>
<marker id="460570716" label="Rich Ancient Iron Deposit" category="50" did="1879087930" parentZoneId="1879063941" longitude="-3.0296874" latitude="-24.837471"/>
<marker id="460570717" label="Platinum Deposit" category="50" did="1879080463" parentZoneId="1879063941" longitude="-3.0296874" latitude="-24.837471"/>
<marker id="460570718" label="Ancient Iron Deposit" category="50" did="1879080464" parentZoneId="1879063941" longitude="-2.9473436" latitude="-25.102812"/>
<marker id="460570719" label="Rich Platinum Deposit" category="50" did="1879087936" parentZoneId="1879063941" longitude="-2.9473436" latitude="-25.102812"/>
<marker id="460570720" label="Misty Mountain Silver Deposit" category="50" did="1879080465" parentZoneId="1879063941" longitude="-2.9473436" latitude="-25.102812"/>
<marker id="460570721" label="Rich Misty Mountain Silver Deposit" category="50" did="1879087937" parentZoneId="1879063941" longitude="-2.9473436" latitude="-25.102812"/>
<marker id="460570722" label="Heavy Black Ash Branches" category="50" did="1879087926" parentZoneId="1879063941" longitude="-2.9473436" latitude="-25.102812"/>
<marker id="460570723" label="Black Ash Branches" category="50" did="1879080458" parentZoneId="1879063941" longitude="-2.9473436" latitude="-25.102812"/>
<marker id="460570724" label="Rich Ancient Iron Deposit" category="50" did="1879087930" parentZoneId="1879063941" longitude="-2.9473436" latitude="-25.102812"/>
<marker id="460570725" label="Platinum Deposit" category="50" did="1879080463" parentZoneId="1879063941" longitude="-2.9473436" latitude="-25.102812"/>
<marker id="460570726" label="Ancient Iron Deposit" category="50" did="1879080464" parentZoneId="1879063941" longitude="-2.819951" latitude="-24.794872"/>
<marker id="460570727" label="Rich Platinum Deposit" category="50" did="1879087936" parentZoneId="1879063941" longitude="-2.819951" latitude="-24.794872"/>
<marker id="460570728" label="Misty Mountain Silver Deposit" category="50" did="1879080465" parentZoneId="1879063941" longitude="-2.819951" latitude="-24.794872"/>
<marker id="460570729" label="Rich Misty Mountain Silver Deposit" category="50" did="1879087937" parentZoneId="1879063941" longitude="-2.819951" latitude="-24.794872"/>
<marker id="460570730" label="Heavy Black Ash Branches" category="50" did="1879087926" parentZoneId="1879063941" longitude="-2.819951" latitude="-24.794872"/>
<marker id="460570731" label="Black Ash Branches" category="50" did="1879080458" parentZoneId="1879063941" longitude="-2.819951" latitude="-24.794872"/>
<marker id="460570732" label="Rich Ancient Iron Deposit" category="50" did="1879087930" parentZoneId="1879063941" longitude="-2.819951" latitude="-24.794872"/>
<marker id="460570733" label="Platinum Deposit" category="50" did="1879080463" parentZoneId="1879063941" longitude="-2.819951" latitude="-24.794872"/>
<marker id="460570734" label="Ancient Iron Deposit" category="50" did="1879080464" parentZoneId="1879063941" longitude="-3.194795" latitude="-24.82206"/>
<marker id="460570735" label="Rich Platinum Deposit" category="50" did="1879087936" parentZoneId="1879063941" longitude="-3.194795" latitude="-24.82206"/>
<marker id="460570736" label="Misty Mountain Silver Deposit" category="50" did="1879080465" parentZoneId="1879063941" longitude="-3.194795" latitude="-24.82206"/>
<marker id="460570737" label="Rich Misty Mountain Silver Deposit" category="50" did="1879087937" parentZoneId="1879063941" longitude="-3.194795" latitude="-24.82206"/>
<marker id="460570738" label="Heavy Black Ash Branches" category="50" did="1879087926" parentZoneId="1879063941" longitude="-3.194795" latitude="-24.82206"/>
<marker id="460570739" label="Black Ash Branches" category="50" did="1879080458" parentZoneId="1879063941" longitude="-3.194795" latitude="-24.82206"/>
<marker id="460570740" label="Rich Ancient Iron Deposit" category="50" did="1879087930" parentZoneId="1879063941" longitude="-3.194795" latitude="-24.82206"/>
<marker id="460570741" label="Platinum Deposit" category="50" did="1879080463" parentZoneId="1879063941" longitude="-3.194795" latitude="-24.82206"/>
<marker id="460570742" label="Ancient Iron Deposit" category="50" did="1879080464" parentZoneId="1879063941" longitude="-3.43249" latitude="-24.532118"/>
<marker id="460570743" label="Rich Platinum Deposit" category="50" did="1879087936" parentZoneId="1879063941" longitude="-3.43249" latitude="-24.532118"/>
<marker id="460570744" label="Misty Mountain Silver Deposit" category="50" did="1879080465" parentZoneId="1879063941" longitude="-3.43249" latitude="-24.532118"/>
<marker id="460570745" label="Rich Misty Mountain Silver Deposit" category="50" did="1879087937" parentZoneId="1879063941" longitude="-3.43249" latitude="-24.532118"/>
<marker id="460570746" label="Heavy Black Ash Branches" category="50" did="1879087926" parentZoneId="1879063941" longitude="-3.43249" latitude="-24.532118"/>
<marker id="460570747" label="Black Ash Branches" category="50" did="1879080458" parentZoneId="1879063941" longitude="-3.43249" latitude="-24.532118"/>
<marker id="460570748" label="Rich Ancient Iron Deposit" category="50" did="1879087930" parentZoneId="1879063941" longitude="-3.43249" latitude="-24.532118"/>
<marker id="460570749" label="Platinum Deposit" category="50" did="1879080463" parentZoneId="1879063941" longitude="-3.43249" latitude="-24.532118"/>
<marker id="460570750" label="Ancient Iron Deposit" category="50" did="1879080464" parentZoneId="1879063941" longitude="-3.028125" latitude="-25.100264"/>
<marker id="460570751" label="Rich Platinum Deposit" category="50" did="1879087936" parentZoneId="1879063941" longitude="-3.028125" latitude="-25.100264"/>
<marker id="460570752" label="Misty Mountain Silver Deposit" category="50" did="1879080465" parentZoneId="1879063941" longitude="-3.028125" latitude="-25.100264"/>
<marker id="460570753" label="Rich Misty Mountain Silver Deposit" category="50" did="1879087937" parentZoneId="1879063941" longitude="-3.028125" latitude="-25.100264"/>
<marker id="460570754" label="Heavy Black Ash Branches" category="50" did="1879087926" parentZoneId="1879063941" longitude="-3.028125" latitude="-25.100264"/>
<marker id="460570755" label="Black Ash Branches" category="50" did="1879080458" parentZoneId="1879063941" longitude="-3.028125" latitude="-25.100264"/>
<marker id="460570756" label="Rich Ancient Iron Deposit" category="50" did="1879087930" parentZoneId="1879063941" longitude="-3.028125" latitude="-25.100264"/>
<marker id="460570757" label="Platinum Deposit" category="50" did="1879080463" parentZoneId="1879063941" longitude="-3.028125" latitude="-25.100264"/>
<marker id="460570758" label="Ancient Iron Deposit" category="50" did="1879080464" parentZoneId="1879063941" longitude="-3.0111816" latitude="-24.448221"/>
<marker id="460570759" label="Rich Platinum Deposit" category="50" did="1879087936" parentZoneId="1879063941" longitude="-3.0111816" latitude="-24.448221"/>
<marker id="460570760" label="Misty Mountain Silver Deposit" category="50" did="1879080465" parentZoneId="1879063941" longitude="-3.0111816" latitude="-24.448221"/>
<marker id="460570761" label="Rich Misty Mountain Silver Deposit" category="50" did="1879087937" parentZoneId="1879063941" longitude="-3.0111816" latitude="-24.448221"/>
<marker id="460570762" label="Heavy Black Ash Branches" category="50" did="1879087926" parentZoneId="1879063941" longitude="-3.0111816" latitude="-24.448221"/>
<marker id="460570763" label="Black Ash Branches" category="50" did="1879080458" parentZoneId="1879063941" longitude="-3.0111816" latitude="-24.448221"/>
<marker id="460570764" label="Rich Ancient Iron Deposit" category="50" did="1879087930" parentZoneId="1879063941" longitude="-3.0111816" latitude="-24.448221"/>
<marker id="460570765" label="Platinum Deposit" category="50" did="1879080463" parentZoneId="1879063941" longitude="-3.0111816" latitude="-24.448221"/>
<marker id="460570766" label="Ancient Iron Deposit" category="50" did="1879080464" parentZoneId="1879063941" longitude="-2.8287206" latitude="-24.8575"/>
<marker id="460570767" label="Rich Platinum Deposit" category="50" did="1879087936" parentZoneId="1879063941" longitude="-2.8287206" latitude="-24.8575"/>
<marker id="460570768" label="Misty Mountain Silver Deposit" category="50" did="1879080465" parentZoneId="1879063941" longitude="-2.8287206" latitude="-24.8575"/>
<marker id="460570769" label="Rich Misty Mountain Silver Deposit" category="50" did="1879087937" parentZoneId="1879063941" longitude="-2.8287206" latitude="-24.8575"/>
<marker id="460570770" label="Heavy Black Ash Branches" category="50" did="1879087926" parentZoneId="1879063941" longitude="-2.8287206" latitude="-24.8575"/>
<marker id="460570771" label="Black Ash Branches" category="50" did="1879080458" parentZoneId="1879063941" longitude="-2.8287206" latitude="-24.8575"/>
<marker id="460570772" label="Rich Ancient Iron Deposit" category="50" did="1879087930" parentZoneId="1879063941" longitude="-2.8287206" latitude="-24.8575"/>
<marker id="460570773" label="Platinum Deposit" category="50" did="1879080463" parentZoneId="1879063941" longitude="-2.8287206" latitude="-24.8575"/>
<marker id="460570774" label="Reindeer" category="78" did="1879080636" parentZoneId="1879063941" longitude="-2.9577637" latitude="-24.456102"/>
<marker id="460570775" label="Winter Fox" category="78" did="1879080637" parentZoneId="1879063941" longitude="-2.9577637" latitude="-24.456102"/>
<marker id="460570776" label="Winter Squirrel" category="78" did="1879080638" parentZoneId="1879063941" longitude="-2.9577637" latitude="-24.456102"/>
<marker id="460570777" label="Reindeer" category="78" did="1879080639" parentZoneId="1879063941" longitude="-2.9577637" latitude="-24.456102"/>
<marker id="460570778" label="Reindeer" category="78" did="1879080636" parentZoneId="1879063941" longitude="-3.18416" latitude="-24.476954"/>
<marker id="460570779" label="Winter Fox" category="78" did="1879080637" parentZoneId="1879063941" longitude="-3.18416" latitude="-24.476954"/>
<marker id="460570780" label="Winter Squirrel" category="78" did="1879080638" parentZoneId="1879063941" longitude="-3.18416" latitude="-24.476954"/>
<marker id="460570781" label="Reindeer" category="78" did="1879080639" parentZoneId="1879063941" longitude="-3.18416" latitude="-24.476954"/>
<marker id="460570782" label="Reindeer" category="78" did="1879080636" parentZoneId="1879063941" longitude="-3.1166992" latitude="-24.825684"/>
<marker id="460570783" label="Winter Fox" category="78" did="1879080637" parentZoneId="1879063941" longitude="-3.1166992" latitude="-24.825684"/>
<marker id="460570784" label="Winter Squirrel" category="78" did="1879080638" parentZoneId="1879063941" longitude="-3.1166992" latitude="-24.825684"/>
<marker id="460570785" label="Reindeer" category="78" did="1879080639" parentZoneId="1879063941" longitude="-3.1166992" latitude="-24.825684"/>
<marker id="460570786" label="Reindeer" category="78" did="1879080636" parentZoneId="1879063941" longitude="-2.8688672" latitude="-24.82919"/>
<marker id="460570787" label="Winter Fox" category="78" did="1879080637" parentZoneId="1879063941" longitude="-2.8688672" latitude="-24.82919"/>
<marker id="460570788" label="Winter Squirrel" category="78" did="1879080638" parentZoneId="1879063941" longitude="-2.8688672" latitude="-24.82919"/>
<marker id="460570789" label="Reindeer" category="78" did="1879080639" parentZoneId="1879063941" longitude="-2.8688672" latitude="-24.82919"/>
<marker id="460574720" label="Snow-lurker" category="71" did="1879080448" parentZoneId="1879063941" longitude="-3.524326" latitude="-24.27916"/>
<marker id="460574721" label="Snowy Lynx" category="71" did="1879080449" parentZoneId="1879063941" longitude="-3.524326" latitude="-24.27916"/>
<marker id="460574722" label="Snow-mantle Bull" category="71" did="1879080450" parentZoneId="1879063941" longitude="-3.524326" latitude="-24.27916"/>
<marker id="460574723" label="Snow-mantle Matron" category="71" did="1879080451" parentZoneId="1879063941" longitude="-3.524326" latitude="-24.27916"/>
<marker id="460574724" label="Snow-beast Hurler" category="71" did="1879080421" parentZoneId="1879063941" longitude="-3.524326" latitude="-24.27916"/>
<marker id="460574725" label="Elusive Snow-beast" category="71" did="1879080422" parentZoneId="1879063941" longitude="-3.524326" latitude="-24.27916"/>
<marker id="460574726" label="Large Snow-bear" category="71" did="1879080447" parentZoneId="1879063941" longitude="-3.524326" latitude="-24.27916"/>
<marker id="460574727" label="Snow-lurker" category="71" did="1879080448" parentZoneId="1879063941" longitude="-3.3605664" latitude="-24.148798"/>
<marker id="460574728" label="Snowy Lynx" category="71" did="1879080449" parentZoneId="1879063941" longitude="-3.3605664" latitude="-24.148798"/>
<marker id="460574729" label="Snow-mantle Bull" category="71" did="1879080450" parentZoneId="1879063941" longitude="-3.3605664" latitude="-24.148798"/>
<marker id="460574730" label="Snow-mantle Matron" category="71" did="1879080451" parentZoneId="1879063941" longitude="-3.3605664" latitude="-24.148798"/>
<marker id="460574731" label="Snow-beast Hurler" category="71" did="1879080421" parentZoneId="1879063941" longitude="-3.3605664" latitude="-24.148798"/>
<marker id="460574732" label="Elusive Snow-beast" category="71" did="1879080422" parentZoneId="1879063941" longitude="-3.3605664" latitude="-24.148798"/>
<marker id="460574733" label="Large Snow-bear" category="71" did="1879080447" parentZoneId="1879063941" longitude="-3.3605664" latitude="-24.148798"/>
<marker id="460574734" label="Snow-lurker" category="71" did="1879080448" parentZoneId="1879063941" longitude="-3.1158006" latitude="-24.13245"/>
<marker id="460574735" label="Snowy Lynx" category="71" did="1879080449" parentZoneId="1879063941" longitude="-3.1158006" latitude="-24.13245"/>
<marker id="460574736" label="Snow-mantle Bull" category="71" did="1879080450" parentZoneId="1879063941" longitude="-3.1158006" latitude="-24.13245"/>
<marker id="460574737" label="Snow-mantle Matron" category="71" did="1879080451" parentZoneId="1879063941" longitude="-3.1158006" latitude="-24.13245"/>
<marker id="460574738" label="Snow-beast Hurler" category="71" did="1879080421" parentZoneId="1879063941" longitude="-3.1158006" latitude="-24.13245"/>
<marker id="460574739" label="Elusive Snow-beast" category="71" did="1879080422" parentZoneId="1879063941" longitude="-3.1158006" latitude="-24.13245"/>
<marker id="460574740" label="Large Snow-bear" category="71" did="1879080447" parentZoneId="1879063941" longitude="-3.1158006" latitude="-24.13245"/>
<marker id="460574741" label="Snow-lurker" category="71" did="1879080448" parentZoneId="1879063941" longitude="-2.903086" latitude="-24.23327"/>
<marker id="460574742" label="Snowy Lynx" category="71" did="1879080449" parentZoneId="1879063941" longitude="-2.903086" latitude="-24.23327"/>
<marker id="460574743" label="Snow-mantle Bull" category="71" did="1879080450" parentZoneId="1879063941" longitude="-2.903086" latitude="-24.23327"/>
<marker id="460574744" label="Snow-mantle Matron" category="71" did="1879080451" parentZoneId="1879063941" longitude="-2.903086" latitude="-24.23327"/>
<marker id="460574745" label="Snow-beast Hurler" category="71" did="1879080421" parentZoneId="1879063941" longitude="-2.903086" latitude="-24.23327"/>
<marker id="460574746" label="Elusive Snow-beast" category="71" did="1879080422" parentZoneId="1879063941" longitude="-2.903086" latitude="-24.23327"/>
<marker id="460574747" label="Large Snow-bear" category="71" did="1879080447" parentZoneId="1879063941" longitude="-2.903086" latitude="-24.23327"/>
<marker id="460574748" label="Snow-lurker" category="71" did="1879080448" parentZoneId="1879063941" longitude="-2.9228222" latitude="-24.031357"/>
<marker id="460574749" label="Snowy Lynx" category="71" did="1879080449" parentZoneId="1879063941" longitude="-2.9228222" latitude="-24.031357"/>
<marker id="460574750" label="Snow-mantle Bull" category="71" did="1879080450" parentZoneId="1879063941" longitude="-2.9228222" latitude="-24.031357"/>
<marker id="460574751" label="Snow-mantle Matron" category="71" did="1879080451" parentZoneId="1879063941" longitude="-2.9228222" latitude="-24.031357"/>
<marker id="460574752" label="Snow-beast Hurler" category="71" did="1879080421" parentZoneId="1879063941" longitude="-2.9228222" latitude="-24.031357"/>
<marker id="460574753" label="Elusive Snow-beast" category="71" did="1879080422" parentZoneId="1879063941" longitude="-2.9228222" latitude="-24.031357"/>
<marker id="460574754" label="Large Snow-bear" category="71" did="1879080447" parentZoneId="1879063941" longitude="-2.9228222" latitude="-24.031357"/>
<marker id="460574755" label="Snow-lurker" category="71" did="1879080448" parentZoneId="1879063941" longitude="-3.1121972" latitude="-23.99119"/>
<marker id="460574756" label="Snowy Lynx" category="71" did="1879080449" parentZoneId="1879063941" longitude="-3.1121972" latitude="-23.99119"/>
<marker id="460574757" label="Snow-mantle Bull" category="71" did="1879080450" parentZoneId="1879063941" longitude="-3.1121972" latitude="-23.99119"/>
<marker id="460574758" label="Snow-mantle Matron" category="71" did="1879080451" parentZoneId="1879063941" longitude="-3.1121972" latitude="-23.99119"/>
<marker id="460574759" label="Snow-beast Hurler" category="71" did="1879080421" parentZoneId="1879063941" longitude="-3.1121972" latitude="-23.99119"/>
<marker id="460574760" label="Elusive Snow-beast" category="71" did="1879080422" parentZoneId="1879063941" longitude="-3.1121972" latitude="-23.99119"/>
<marker id="460574761" label="Large Snow-bear" category="71" did="1879080447" parentZoneId="1879063941" longitude="-3.1121972" latitude="-23.99119"/>
<marker id="460574762" label="Snow-lurker" category="71" did="1879080448" parentZoneId="1879063941" longitude="-2.9334373" latitude="-23.85618"/>
<marker id="460574763" label="Snowy Lynx" category="71" did="1879080449" parentZoneId="1879063941" longitude="-2.9334373" latitude="-23.85618"/>
<marker id="460574764" label="Snow-mantle Bull" category="71" did="1879080450" parentZoneId="1879063941" longitude="-2.9334373" latitude="-23.85618"/>
<marker id="460574765" label="Snow-mantle Matron" category="71" did="1879080451" parentZoneId="1879063941" longitude="-2.9334373" latitude="-23.85618"/>
<marker id="460574766" label="Snow-beast Hurler" category="71" did="1879080421" parentZoneId="1879063941" longitude="-2.9334373" latitude="-23.85618"/>
<marker id="460574767" label="Elusive Snow-beast" category="71" did="1879080422" parentZoneId="1879063941" longitude="-2.9334373" latitude="-23.85618"/>
<marker id="460574768" label="Large Snow-bear" category="71" did="1879080447" parentZoneId="1879063941" longitude="-2.9334373" latitude="-23.85618"/>
<marker id="460574769" label="Snow-lurker" category="71" did="1879080448" parentZoneId="1879063941" longitude="-3.1216211" latitude="-23.788242"/>
<marker id="460574770" label="Snowy Lynx" category="71" did="1879080449" parentZoneId="1879063941" longitude="-3.1216211" latitude="-23.788242"/>
<marker id="460574771" label="Snow-mantle Bull" category="71" did="1879080450" parentZoneId="1879063941" longitude="-3.1216211" latitude="-23.788242"/>
<marker id="460574772" label="Snow-mantle Matron" category="71" did="1879080451" parentZoneId="1879063941" longitude="-3.1216211" latitude="-23.788242"/>
<marker id="460574773" label="Snow-beast Hurler" category="71" did="1879080421" parentZoneId="1879063941" longitude="-3.1216211" latitude="-23.788242"/>
<marker id="460574774" label="Elusive Snow-beast" category="71" did="1879080422" parentZoneId="1879063941" longitude="-3.1216211" latitude="-23.788242"/>
<marker id="460574775" label="Large Snow-bear" category="71" did="1879080447" parentZoneId="1879063941" longitude="-3.1216211" latitude="-23.788242"/>
<marker id="460574776" label="Snow-lurker" category="71" did="1879080448" parentZoneId="1879063941" longitude="-2.9670606" latitude="-23.661934"/>
<marker id="460574777" label="Snowy Lynx" category="71" did="1879080449" parentZoneId="1879063941" longitude="-2.9670606" latitude="-23.661934"/>
<marker id="460574778" label="Snow-mantle Bull" category="71" did="1879080450" parentZoneId="1879063941" longitude="-2.9670606" latitude="-23.661934"/>
<marker id="460574779" label="Snow-mantle Matron" category="71" did="1879080451" parentZoneId="1879063941" longitude="-2.9670606" latitude="-23.661934"/>
<marker id="460574780" label="Snow-beast Hurler" category="71" did="1879080421" parentZoneId="1879063941" longitude="-2.9670606" latitude="-23.661934"/>
<marker id="460574781" label="Elusive Snow-beast" category="71" did="1879080422" parentZoneId="1879063941" longitude="-2.9670606" latitude="-23.661934"/>
<marker id="460574782" label="Large Snow-bear" category="71" did="1879080447" parentZoneId="1879063941" longitude="-2.9670606" latitude="-23.661934"/>
<marker id="460574783" label="Snow-lurker" category="71" did="1879080448" parentZoneId="1879063941" longitude="-3.3936424" latitude="-23.720322"/>
<marker id="460574784" label="Snowy Lynx" category="71" did="1879080449" parentZoneId="1879063941" longitude="-3.3936424" latitude="-23.720322"/>
<marker id="460574785" label="Snow-mantle Bull" category="71" did="1879080450" parentZoneId="1879063941" longitude="-3.3936424" latitude="-23.720322"/>
<marker id="460574786" label="Snow-mantle Matron" category="71" did="1879080451" parentZoneId="1879063941" longitude="-3.3936424" latitude="-23.720322"/>
<marker id="460574787" label="Snow-beast Hurler" category="71" did="1879080421" parentZoneId="1879063941" longitude="-3.3936424" latitude="-23.720322"/>
<marker id="460574788" label="Elusive Snow-beast" category="71" did="1879080422" parentZoneId="1879063941" longitude="-3.3936424" latitude="-23.720322"/>
<marker id="460574789" label="Large Snow-bear" category="71" did="1879080447" parentZoneId="1879063941" longitude="-3.3936424" latitude="-23.720322"/>
<marker id="460574790" label="Reindeer" category="78" did="1879080636" parentZoneId="1879063941" longitude="-3.024912" latitude="-24.174452"/>
<marker id="460574791" label="Winter Fox" category="78" did="1879080637" parentZoneId="1879063941" longitude="-3.024912" latitude="-24.174452"/>
<marker id="460574792" label="Winter Squirrel" category="78" did="1879080638" parentZoneId="1879063941" longitude="-3.024912" latitude="-24.174452"/>
<marker id="460574793" label="Reindeer" category="78" did="1879080639" parentZoneId="1879063941" longitude="-3.024912" latitude="-24.174452"/>
<marker id="460574794" label="Reindeer" category="78" did="1879080636" parentZoneId="1879063941" longitude="-3.2289257" latitude="-24.106865"/>
<marker id="460574795" label="Winter Fox" category="78" did="1879080637" parentZoneId="1879063941" longitude="-3.2289257" latitude="-24.106865"/>
<marker id="460574796" label="Winter Squirrel" category="78" did="1879080638" parentZoneId="1879063941" longitude="-3.2289257" latitude="-24.106865"/>
<marker id="460574797" label="Reindeer" category="78" did="1879080639" parentZoneId="1879063941" longitude="-3.2289257" latitude="-24.106865"/>
<marker id="460574798" label="Reindeer" category="78" did="1879080636" parentZoneId="1879063941" longitude="-3.21708" latitude="-23.919569"/>
<marker id="460574799" label="Winter Fox" category="78" did="1879080637" parentZoneId="1879063941" longitude="-3.21708" latitude="-23.919569"/>
<marker id="460574800" label="Winter Squirrel" category="78" did="1879080638" parentZoneId="1879063941" longitude="-3.21708" latitude="-23.919569"/>
<marker id="460574801" label="Reindeer" category="78" did="1879080639" parentZoneId="1879063941" longitude="-3.21708" latitude="-23.919569"/>
<marker id="460574802" label="Reindeer" category="78" did="1879080636" parentZoneId="1879063941" longitude="-2.8651073" latitude="-23.652714"/>
<marker id="460574803" label="Winter Fox" category="78" did="1879080637" parentZoneId="1879063941" longitude="-2.8651073" latitude="-23.652714"/>
<marker id="460574804" label="Winter Squirrel" category="78" did="1879080638" parentZoneId="1879063941" longitude="-2.8651073" latitude="-23.652714"/>
<marker id="460574805" label="Reindeer" category="78" did="1879080639" parentZoneId="1879063941" longitude="-2.8651073" latitude="-23.652714"/>
<marker id="460578816" label="Snow-lurker" category="71" did="1879080448" parentZoneId="1879063941" longitude="-2.9414744" latitude="-23.505653"/>
<marker id="460578817" label="Snowy Lynx" category="71" did="1879080449" parentZoneId="1879063941" longitude="-2.9414744" latitude="-23.505653"/>
<marker id="460578818" label="Snow-mantle Bull" category="71" did="1879080450" parentZoneId="1879063941" longitude="-2.9414744" latitude="-23.505653"/>
<marker id="460578819" label="Snow-mantle Matron" category="71" did="1879080451" parentZoneId="1879063941" longitude="-2.9414744" latitude="-23.505653"/>
<marker id="460578820" label="Snow-beast Hurler" category="71" did="1879080421" parentZoneId="1879063941" longitude="-2.9414744" latitude="-23.505653"/>
<marker id="460578821" label="Elusive Snow-beast" category="71" did="1879080422" parentZoneId="1879063941" longitude="-2.9414744" latitude="-23.505653"/>
<marker id="460578822" label="Large Snow-bear" category="71" did="1879080447" parentZoneId="1879063941" longitude="-2.9414744" latitude="-23.505653"/>
<marker id="460578823" label="Snow-lurker" category="71" did="1879080448" parentZoneId="1879063941" longitude="-3.0790331" latitude="-23.252148"/>
<marker id="460578824" label="Snowy Lynx" category="71" did="1879080449" parentZoneId="1879063941" longitude="-3.0790331" latitude="-23.252148"/>
<marker id="460578825" label="Snow-mantle Bull" category="71" did="1879080450" parentZoneId="1879063941" longitude="-3.0790331" latitude="-23.252148"/>
<marker id="460578826" label="Snow-mantle Matron" category="71" did="1879080451" parentZoneId="1879063941" longitude="-3.0790331" latitude="-23.252148"/>
<marker id="460578827" label="Snow-beast Hurler" category="71" did="1879080421" parentZoneId="1879063941" longitude="-3.0790331" latitude="-23.252148"/>
<marker id="460578828" label="Elusive Snow-beast" category="71" did="1879080422" parentZoneId="1879063941" longitude="-3.0790331" latitude="-23.252148"/>
<marker id="460578829" label="Large Snow-bear" category="71" did="1879080447" parentZoneId="1879063941" longitude="-3.0790331" latitude="-23.252148"/>
<marker id="460578830" label="Snow-lurker" category="71" did="1879080448" parentZoneId="1879063941" longitude="-3.331621" latitude="-23.301767"/>
<marker id="460578831" label="Snowy Lynx" category="71" did="1879080449" parentZoneId="1879063941" longitude="-3.331621" latitude="-23.301767"/>
<marker id="460578832" label="Snow-mantle Bull" category="71" did="1879080450" parentZoneId="1879063941" longitude="-3.331621" latitude="-23.301767"/>
<marker id="460578833" label="Snow-mantle Matron" category="71" did="1879080451" parentZoneId="1879063941" longitude="-3.331621" latitude="-23.301767"/>
<marker id="460578834" label="Snow-beast Hurler" category="71" did="1879080421" parentZoneId="1879063941" longitude="-3.331621" latitude="-23.301767"/>
<marker id="460578835" label="Elusive Snow-beast" category="71" did="1879080422" parentZoneId="1879063941" longitude="-3.331621" latitude="-23.301767"/>
<marker id="460578836" label="Large Snow-bear" category="71" did="1879080447" parentZoneId="1879063941" longitude="-3.331621" latitude="-23.301767"/>
<marker id="460578837" label="Snow-lurker" category="71" did="1879080448" parentZoneId="1879063941" longitude="-3.4196289" latitude="-23.172842"/>
<marker id="460578838" label="Snowy Lynx" category="71" did="1879080449" parentZoneId="1879063941" longitude="-3.4196289" latitude="-23.172842"/>
<marker id="460578839" label="Snow-mantle Bull" category="71" did="1879080450" parentZoneId="1879063941" longitude="-3.4196289" latitude="-23.172842"/>
<marker id="460578840" label="Snow-mantle Matron" category="71" did="1879080451" parentZoneId="1879063941" longitude="-3.4196289" latitude="-23.172842"/>
<marker id="460578841" label="Snow-beast Hurler" category="71" did="1879080421" parentZoneId="1879063941" longitude="-3.4196289" latitude="-23.172842"/>
<marker id="460578842" label="Elusive Snow-beast" category="71" did="1879080422" parentZoneId="1879063941" longitude="-3.4196289" latitude="-23.172842"/>
<marker id="460578843" label="Large Snow-bear" category="71" did="1879080447" parentZoneId="1879063941" longitude="-3.4196289" latitude="-23.172842"/>
<marker id="460578844" label="Snow-lurker" category="71" did="1879080448" parentZoneId="1879063941" longitude="-3.088125" latitude="-23.091845"/>
<marker id="460578845" label="Snowy Lynx" category="71" did="1879080449" parentZoneId="1879063941" longitude="-3.088125" latitude="-23.091845"/>
<marker id="460578846" label="Snow-mantle Bull" category="71" did="1879080450" parentZoneId="1879063941" longitude="-3.088125" latitude="-23.091845"/>
<marker id="460578847" label="Snow-mantle Matron" category="71" did="1879080451" parentZoneId="1879063941" longitude="-3.088125" latitude="-23.091845"/>
<marker id="460578848" label="Snow-beast Hurler" category="71" did="1879080421" parentZoneId="1879063941" longitude="-3.088125" latitude="-23.091845"/>
<marker id="460578849" label="Elusive Snow-beast" category="71" did="1879080422" parentZoneId="1879063941" longitude="-3.088125" latitude="-23.091845"/>
<marker id="460578850" label="Large Snow-bear" category="71" did="1879080447" parentZoneId="1879063941" longitude="-3.088125" latitude="-23.091845"/>
<marker id="460578851" label="Snow-lurker" category="71" did="1879080448" parentZoneId="1879063941" longitude="-3.1128125" latitude="-22.934893"/>
<marker id="460578852" label="Snowy Lynx" category="71" did="1879080449" parentZoneId="1879063941" longitude="-3.1128125" latitude="-22.934893"/>
<marker id="460578853" label="Snow-mantle Bull" category="71" did="1879080450" parentZoneId="1879063941" longitude="-3.1128125" latitude="-22.934893"/>
<marker id="460578854" label="Snow-mantle Matron" category="71" did="1879080451" parentZoneId="1879063941" longitude="-3.1128125" latitude="-22.934893"/>
<marker id="460578855" label="Snow-beast Hurler" category="71" did="1879080421" parentZoneId="1879063941" longitude="-3.1128125" latitude="-22.934893"/>
<marker id="460578856" label="Elusive Snow-beast" category="71" did="1879080422" parentZoneId="1879063941" longitude="-3.1128125" latitude="-22.934893"/>
<marker id="460578857" label="Large Snow-bear" category="71" did="1879080447" parentZoneId="1879063941" longitude="-3.1128125" latitude="-22.934893"/>
<marker id="460578858" label="Snow-lurker" category="71" did="1879080448" parentZoneId="1879063941" longitude="-3.53" latitude="-22.879473"/>
<marker id="460578859" label="Snowy Lynx" category="71" did="1879080449" parentZoneId="1879063941" longitude="-3.53" latitude="-22.879473"/>
<marker id="460578860" label="Snow-mantle Bull" category="71" did="1879080450" parentZoneId="1879063941" longitude="-3.53" latitude="-22.879473"/>
<marker id="460578861" label="Snow-mantle Matron" category="71" did="1879080451" parentZoneId="1879063941" longitude="-3.53" latitude="-22.879473"/>
<marker id="460578862" label="Snow-beast Hurler" category="71" did="1879080421" parentZoneId="1879063941" longitude="-3.53" latitude="-22.879473"/>
<marker id="460578863" label="Elusive Snow-beast" category="71" did="1879080422" parentZoneId="1879063941" longitude="-3.53" latitude="-22.879473"/>
<marker id="460578864" label="Large Snow-bear" category="71" did="1879080447" parentZoneId="1879063941" longitude="-3.53" latitude="-22.879473"/>
<marker id="460578865" label="Snow-lurker" category="71" did="1879080448" parentZoneId="1879063941" longitude="-3.3836522" latitude="-23.024258"/>
<marker id="460578866" label="Snowy Lynx" category="71" did="1879080449" parentZoneId="1879063941" longitude="-3.3836522" latitude="-23.024258"/>
<marker id="460578867" label="Snow-mantle Bull" category="71" did="1879080450" parentZoneId="1879063941" longitude="-3.3836522" latitude="-23.024258"/>
<marker id="460578868" label="Snow-mantle Matron" category="71" did="1879080451" parentZoneId="1879063941" longitude="-3.3836522" latitude="-23.024258"/>
<marker id="460578869" label="Snow-beast Hurler" category="71" did="1879080421" parentZoneId="1879063941" longitude="-3.3836522" latitude="-23.024258"/>
<marker id="460578870" label="Elusive Snow-beast" category="71" did="1879080422" parentZoneId="1879063941" longitude="-3.3836522" latitude="-23.024258"/>
<marker id="460578871" label="Large Snow-bear" category="71" did="1879080447" parentZoneId="1879063941" longitude="-3.3836522" latitude="-23.024258"/>
<marker id="460578872" label="Snow-lurker" category="71" did="1879080448" parentZoneId="1879063941" longitude="-3.5753808" latitude="-23.032675"/>
<marker id="460578873" label="Snowy Lynx" category="71" did="1879080449" parentZoneId="1879063941" longitude="-3.5753808" latitude="-23.032675"/>
<marker id="460578874" label="Snow-mantle Bull" category="71" did="1879080450" parentZoneId="1879063941" longitude="-3.5753808" latitude="-23.032675"/>
<marker id="460578875" label="Snow-mantle Matron" category="71" did="1879080451" parentZoneId="1879063941" longitude="-3.5753808" latitude="-23.032675"/>
<marker id="460578876" label="Snow-beast Hurler" category="71" did="1879080421" parentZoneId="1879063941" longitude="-3.5753808" latitude="-23.032675"/>
<marker id="460578877" label="Elusive Snow-beast" category="71" did="1879080422" parentZoneId="1879063941" longitude="-3.5753808" latitude="-23.032675"/>
<marker id="460578878" label="Large Snow-bear" category="71" did="1879080447" parentZoneId="1879063941" longitude="-3.5753808" latitude="-23.032675"/>
<marker id="460578879" label="Snow-beast Hurler" category="71" did="1879080421" parentZoneId="1879063941" longitude="-3.2070508" latitude="-22.95495"/>
<marker id="460578880" label="Elusive Snow-beast" category="71" did="1879080422" parentZoneId="1879063941" longitude="-3.2070508" latitude="-22.95495"/>
<marker id="460578881" label="Snow-beast Hurler" category="71" did="1879080421" parentZoneId="1879063941" longitude="-3.2652538" latitude="-22.907587"/>
<marker id="460578882" label="Elusive Snow-beast" category="71" did="1879080422" parentZoneId="1879063941" longitude="-3.2652538" latitude="-22.907587"/>
<marker id="460578883" label="Snow-beast Hurler" category="71" did="1879080421" parentZoneId="1879063941" longitude="-3.2720118" latitude="-22.977274"/>
<marker id="460578884" label="Elusive Snow-beast" category="71" did="1879080422" parentZoneId="1879063941" longitude="-3.2720118" latitude="-22.977274"/>
<marker id="460578885" label="Ancient Iron Deposit" category="50" did="1879080464" parentZoneId="1879063941" longitude="-2.881582" latitude="-23.33873"/>
<marker id="460578886" label="Rich Platinum Deposit" category="50" did="1879087936" parentZoneId="1879063941" longitude="-2.881582" latitude="-23.33873"/>
