<?xml version="1.0" encoding="UTF-8"?><markers>
<marker id="442552320" label="Истовый коркур" category="71" did="1879080166" parentZoneId="1879063933" longitude="-18.723524" latitude="-36.525703"/>
<marker id="442552321" label="Ватаир Кровавый Ворон" category="71" did="1879080235" parentZoneId="1879063933" longitude="-18.723524" latitude="-36.525703"/>
<marker id="442552322" label="Курр-олог - бичеватель" category="71" did="1879080164" parentZoneId="1879063933" longitude="-18.424599" latitude="-36.676014"/>
<marker id="442552323" label="Курр-олог - метатель" category="71" did="1879080165" parentZoneId="1879063933" longitude="-18.424599" latitude="-36.676014"/>
<marker id="442552324" label="Истовый коркур" category="71" did="1879080166" parentZoneId="1879063933" longitude="-18.424599" latitude="-36.676014"/>
<marker id="442552325" label="Коркур-стрелок" category="71" did="1879080167" parentZoneId="1879063933" longitude="-18.424599" latitude="-36.676014"/>
<marker id="442552326" label="Курр-олог - бичеватель" category="71" did="1879080164" parentZoneId="1879063933" longitude="-18.351942" latitude="-36.530067"/>
<marker id="442552327" label="Курр-олог - метатель" category="71" did="1879080165" parentZoneId="1879063933" longitude="-18.351942" latitude="-36.530067"/>
<marker id="442552328" label="Истовый коркур" category="71" did="1879080166" parentZoneId="1879063933" longitude="-18.351942" latitude="-36.530067"/>
<marker id="442552329" label="Коркур-стрелок" category="71" did="1879080167" parentZoneId="1879063933" longitude="-18.351942" latitude="-36.530067"/>
<marker id="442552330" label="Курр-олог - бичеватель" category="71" did="1879080164" parentZoneId="1879063933" longitude="-18.442108" latitude="-36.542694"/>
<marker id="442552331" label="Курр-олог - метатель" category="71" did="1879080165" parentZoneId="1879063933" longitude="-18.442108" latitude="-36.542694"/>
<marker id="442552332" label="Истовый коркур" category="71" did="1879080166" parentZoneId="1879063933" longitude="-18.442108" latitude="-36.542694"/>
<marker id="442552333" label="Коркур-стрелок" category="71" did="1879080167" parentZoneId="1879063933" longitude="-18.442108" latitude="-36.542694"/>
<marker id="442552334" label="Курр-олог - бичеватель" category="71" did="1879080164" parentZoneId="1879063933" longitude="-18.31251" latitude="-36.650692"/>
<marker id="442552335" label="Курр-олог - метатель" category="71" did="1879080165" parentZoneId="1879063933" longitude="-18.31251" latitude="-36.650692"/>
<marker id="442552336" label="Истовый коркур" category="71" did="1879080166" parentZoneId="1879063933" longitude="-18.31251" latitude="-36.650692"/>
<marker id="442552337" label="Коркур-стрелок" category="71" did="1879080167" parentZoneId="1879063933" longitude="-18.31251" latitude="-36.650692"/>
<marker id="442552338" label="Курр-олог - бичеватель" category="71" did="1879080164" parentZoneId="1879063933" longitude="-18.312822" latitude="-36.617107"/>
<marker id="442552339" label="Курр-олог - метатель" category="71" did="1879080165" parentZoneId="1879063933" longitude="-18.312822" latitude="-36.617107"/>
<marker id="442552340" label="Истовый коркур" category="71" did="1879080166" parentZoneId="1879063933" longitude="-18.312822" latitude="-36.617107"/>
<marker id="442552341" label="Коркур-стрелок" category="71" did="1879080167" parentZoneId="1879063933" longitude="-18.312822" latitude="-36.617107"/>
<marker id="442552342" label="Курр-олог - бичеватель" category="71" did="1879080164" parentZoneId="1879063933" longitude="-18.627686" latitude="-36.78572"/>
<marker id="442552343" label="Курр-олог - метатель" category="71" did="1879080165" parentZoneId="1879063933" longitude="-18.627686" latitude="-36.78572"/>
<marker id="442552344" label="Истовый коркур" category="71" did="1879080166" parentZoneId="1879063933" longitude="-18.627686" latitude="-36.78572"/>
<marker id="442552345" label="Коркур-стрелок" category="71" did="1879080167" parentZoneId="1879063933" longitude="-18.627686" latitude="-36.78572"/>
<marker id="442552346" label="Курр-олог - бичеватель" category="71" did="1879080164" parentZoneId="1879063933" longitude="-18.585957" latitude="-36.792263"/>
<marker id="442552347" label="Курр-олог - метатель" category="71" did="1879080165" parentZoneId="1879063933" longitude="-18.585957" latitude="-36.792263"/>
<marker id="442552348" label="Истовый коркур" category="71" did="1879080166" parentZoneId="1879063933" longitude="-18.585957" latitude="-36.792263"/>
<marker id="442552349" label="Коркур-стрелок" category="71" did="1879080167" parentZoneId="1879063933" longitude="-18.585957" latitude="-36.792263"/>
<marker id="442552350" label="Курр-олог - бичеватель" category="71" did="1879080164" parentZoneId="1879063933" longitude="-18.594433" latitude="-36.76623"/>
<marker id="442552351" label="Курр-олог - метатель" category="71" did="1879080165" parentZoneId="1879063933" longitude="-18.594433" latitude="-36.76623"/>
<marker id="442552352" label="Истовый коркур" category="71" did="1879080166" parentZoneId="1879063933" longitude="-18.594433" latitude="-36.76623"/>
<marker id="442552353" label="Коркур-стрелок" category="71" did="1879080167" parentZoneId="1879063933" longitude="-18.594433" latitude="-36.76623"/>
<marker id="442552354" label="Курр-олог - бичеватель" category="71" did="1879080164" parentZoneId="1879063933" longitude="-18.378046" latitude="-36.62251"/>
<marker id="442552355" label="Курр-олог - метатель" category="71" did="1879080165" parentZoneId="1879063933" longitude="-18.378046" latitude="-36.62251"/>
<marker id="442552356" label="Истовый коркур" category="71" did="1879080166" parentZoneId="1879063933" longitude="-18.378046" latitude="-36.62251"/>
<marker id="442552357" label="Коркур-стрелок" category="71" did="1879080167" parentZoneId="1879063933" longitude="-18.378046" latitude="-36.62251"/>
<marker id="442552358" label="Курр-олог - бичеватель" category="71" did="1879080164" parentZoneId="1879063933" longitude="-18.545282" latitude="-36.756824"/>
<marker id="442552359" label="Курр-олог - метатель" category="71" did="1879080165" parentZoneId="1879063933" longitude="-18.545282" latitude="-36.756824"/>
<marker id="442552360" label="Истовый коркур" category="71" did="1879080166" parentZoneId="1879063933" longitude="-18.545282" latitude="-36.756824"/>
<marker id="442552361" label="Коркур-стрелок" category="71" did="1879080167" parentZoneId="1879063933" longitude="-18.545282" latitude="-36.756824"/>
<marker id="442552362" label="Курр-олог - бичеватель" category="71" did="1879080164" parentZoneId="1879063933" longitude="-18.492226" latitude="-36.708378"/>
<marker id="442552363" label="Курр-олог - метатель" category="71" did="1879080165" parentZoneId="1879063933" longitude="-18.492226" latitude="-36.708378"/>
<marker id="442552364" label="Истовый коркур" category="71" did="1879080166" parentZoneId="1879063933" longitude="-18.492226" latitude="-36.708378"/>
<marker id="442552365" label="Коркур-стрелок" category="71" did="1879080167" parentZoneId="1879063933" longitude="-18.492226" latitude="-36.708378"/>
<marker id="442552366" label="Курр-олог - бичеватель" category="71" did="1879080164" parentZoneId="1879063933" longitude="-18.51422" latitude="-36.774014"/>
<marker id="442552367" label="Курр-олог - метатель" category="71" did="1879080165" parentZoneId="1879063933" longitude="-18.51422" latitude="-36.774014"/>
<marker id="442552368" label="Истовый коркур" category="71" did="1879080166" parentZoneId="1879063933" longitude="-18.51422" latitude="-36.774014"/>
<marker id="442552369" label="Коркур-стрелок" category="71" did="1879080167" parentZoneId="1879063933" longitude="-18.51422" latitude="-36.774014"/>
<marker id="442552370" label="Курр-олог - бичеватель" category="71" did="1879080164" parentZoneId="1879063933" longitude="-18.471054" latitude="-36.610664"/>
<marker id="442552371" label="Курр-олог - метатель" category="71" did="1879080165" parentZoneId="1879063933" longitude="-18.471054" latitude="-36.610664"/>
<marker id="442552372" label="Истовый коркур" category="71" did="1879080166" parentZoneId="1879063933" longitude="-18.471054" latitude="-36.610664"/>
<marker id="442552373" label="Коркур-стрелок" category="71" did="1879080167" parentZoneId="1879063933" longitude="-18.471054" latitude="-36.610664"/>
<marker id="442552374" label="Курр-олог - бичеватель" category="71" did="1879080164" parentZoneId="1879063933" longitude="-18.541698" latitude="-36.675632"/>
<marker id="442552375" label="Курр-олог - метатель" category="71" did="1879080165" parentZoneId="1879063933" longitude="-18.541698" latitude="-36.675632"/>
<marker id="442552376" label="Истовый коркур" category="71" did="1879080166" parentZoneId="1879063933" longitude="-18.541698" latitude="-36.675632"/>
<marker id="442552377" label="Коркур-стрелок" category="71" did="1879080167" parentZoneId="1879063933" longitude="-18.541698" latitude="-36.675632"/>
<marker id="442552378" label="Курр-олог - бичеватель" category="71" did="1879080164" parentZoneId="1879063933" longitude="-18.352226" latitude="-36.753544"/>
<marker id="442552379" label="Курр-олог - метатель" category="71" did="1879080165" parentZoneId="1879063933" longitude="-18.352226" latitude="-36.753544"/>
<marker id="442552380" label="Истовый коркур" category="71" did="1879080166" parentZoneId="1879063933" longitude="-18.352226" latitude="-36.753544"/>
<marker id="442552381" label="Коркур-стрелок" category="71" did="1879080167" parentZoneId="1879063933" longitude="-18.352226" latitude="-36.753544"/>
<marker id="442552382" label="Курр-олог - бичеватель" category="71" did="1879080164" parentZoneId="1879063933" longitude="-18.516924" latitude="-36.469666"/>
<marker id="442552383" label="Курр-олог - метатель" category="71" did="1879080165" parentZoneId="1879063933" longitude="-18.516924" latitude="-36.469666"/>
<marker id="442552384" label="Истовый коркур" category="71" did="1879080166" parentZoneId="1879063933" longitude="-18.516924" latitude="-36.469666"/>
<marker id="442552385" label="Коркур-стрелок" category="71" did="1879080167" parentZoneId="1879063933" longitude="-18.516924" latitude="-36.469666"/>
<marker id="442552386" label="Курр-олог - бичеватель" category="71" did="1879080164" parentZoneId="1879063933" longitude="-18.474775" latitude="-36.43362"/>
<marker id="442552387" label="Курр-олог - метатель" category="71" did="1879080165" parentZoneId="1879063933" longitude="-18.474775" latitude="-36.43362"/>
<marker id="442552388" label="Истовый коркур" category="71" did="1879080166" parentZoneId="1879063933" longitude="-18.474775" latitude="-36.43362"/>
<marker id="442552389" label="Коркур-стрелок" category="71" did="1879080167" parentZoneId="1879063933" longitude="-18.474775" latitude="-36.43362"/>
<marker id="442552390" label="Истовый коркур" category="71" did="1879080166" parentZoneId="1879063933" longitude="-18.31" latitude="-36.670242"/>
<marker id="442552391" label="Ватаир Кровавый Ворон" category="71" did="1879080235" parentZoneId="1879063933" longitude="-18.31" latitude="-36.670242"/>
<marker id="442552392" label="Истовый коркур" category="71" did="1879080166" parentZoneId="1879063933" longitude="-18.337255" latitude="-36.62716"/>
<marker id="442552393" label="Ватаир Кровавый Ворон" category="71" did="1879080235" parentZoneId="1879063933" longitude="-18.337255" latitude="-36.62716"/>
<marker id="442552394" label="Забытый манускрипт" category="50" did="1879080159" parentZoneId="1879063933" longitude="-18.729727" latitude="-36.816563"/>
<marker id="442552395" label="Забытый манускрипт" category="50" did="1879080159" parentZoneId="1879063933" longitude="-18.73001" latitude="-36.781612"/>
<marker id="442552396" label="Забытый манускрипт" category="50" did="1879080159" parentZoneId="1879063933" longitude="-18.44669" latitude="-36.745625"/>
<marker id="442552397" label="Забытый манускрипт" category="50" did="1879080159" parentZoneId="1879063933" longitude="-18.259912" latitude="-36.60744"/>
<marker id="442552398" label="Забытый манускрипт" category="50" did="1879080159" parentZoneId="1879063933" longitude="-18.422148" latitude="-36.826912"/>
<marker id="442552399" label="Забытый манускрипт" category="50" did="1879080159" parentZoneId="1879063933" longitude="-18.32872" latitude="-36.77794"/>
<marker id="442552400" label="Забытый манускрипт" category="50" did="1879080159" parentZoneId="1879063933" longitude="-18.47829" latitude="-36.522556"/>
<marker id="442552401" label="Забытый манускрипт" category="50" did="1879080159" parentZoneId="1879063933" longitude="-18.36248" latitude="-36.68049"/>
<marker id="442552402" label="Забытый манускрипт" category="50" did="1879080159" parentZoneId="1879063933" longitude="-18.467793" latitude="-36.66582"/>
<marker id="442556416" label="Курр-олог - бичеватель" category="71" did="1879080164" parentZoneId="1879063933" longitude="-18.522861" latitude="-36.375206"/>
<marker id="442556417" label="Курр-олог - метатель" category="71" did="1879080165" parentZoneId="1879063933" longitude="-18.522861" latitude="-36.375206"/>
<marker id="442556418" label="Истовый коркур" category="71" did="1879080166" parentZoneId="1879063933" longitude="-18.522861" latitude="-36.375206"/>
<marker id="442556419" label="Коркур-стрелок" category="71" did="1879080167" parentZoneId="1879063933" longitude="-18.522861" latitude="-36.375206"/>
<marker id="442556420" label="Курр-олог - бичеватель" category="71" did="1879080164" parentZoneId="1879063933" longitude="-18.231972" latitude="-36.127335"/>
<marker id="442556421" label="Курр-олог - метатель" category="71" did="1879080165" parentZoneId="1879063933" longitude="-18.231972" latitude="-36.127335"/>
<marker id="442556422" label="Истовый коркур" category="71" did="1879080166" parentZoneId="1879063933" longitude="-18.231972" latitude="-36.127335"/>
<marker id="442556423" label="Коркур-стрелок" category="71" did="1879080167" parentZoneId="1879063933" longitude="-18.231972" latitude="-36.127335"/>
<marker id="442556424" label="Курр-олог - бичеватель" category="71" did="1879080164" parentZoneId="1879063933" longitude="-18.336494" latitude="-36.09633"/>
<marker id="442556425" label="Курр-олог - метатель" category="71" did="1879080165" parentZoneId="1879063933" longitude="-18.336494" latitude="-36.09633"/>
<marker id="442556426" label="Истовый коркур" category="71" did="1879080166" parentZoneId="1879063933" longitude="-18.336494" latitude="-36.09633"/>
<marker id="442556427" label="Коркур-стрелок" category="71" did="1879080167" parentZoneId="1879063933" longitude="-18.336494" latitude="-36.09633"/>
<marker id="442556428" label="Курр-олог - бичеватель" category="71" did="1879080164" parentZoneId="1879063933" longitude="-18.342821" latitude="-36.207977"/>
<marker id="442556429" label="Курр-олог - метатель" category="71" did="1879080165" parentZoneId="1879063933" longitude="-18.342821" latitude="-36.207977"/>
<marker id="442556430" label="Истовый коркур" category="71" did="1879080166" parentZoneId="1879063933" longitude="-18.342821" latitude="-36.207977"/>
<marker id="442556431" label="Коркур-стрелок" category="71" did="1879080167" parentZoneId="1879063933" longitude="-18.342821" latitude="-36.207977"/>
<marker id="442556432" label="Курр-олог - бичеватель" category="71" did="1879080164" parentZoneId="1879063933" longitude="-18.106768" latitude="-35.844334"/>
<marker id="442556433" label="Курр-олог - метатель" category="71" did="1879080165" parentZoneId="1879063933" longitude="-18.106768" latitude="-35.844334"/>
<marker id="442556434" label="Истовый коркур" category="71" did="1879080166" parentZoneId="1879063933" longitude="-18.106768" latitude="-35.844334"/>
<marker id="442556435" label="Коркур-стрелок" category="71" did="1879080167" parentZoneId="1879063933" longitude="-18.106768" latitude="-35.844334"/>
<marker id="442556436" label="Курр-олог - бичеватель" category="71" did="1879080164" parentZoneId="1879063933" longitude="-18.23499" latitude="-36.054317"/>
<marker id="442556437" label="Курр-олог - метатель" category="71" did="1879080165" parentZoneId="1879063933" longitude="-18.23499" latitude="-36.054317"/>
<marker id="442556438" label="Истовый коркур" category="71" did="1879080166" parentZoneId="1879063933" longitude="-18.23499" latitude="-36.054317"/>
<marker id="442556439" label="Коркур-стрелок" category="71" did="1879080167" parentZoneId="1879063933" longitude="-18.23499" latitude="-36.054317"/>
<marker id="442556440" label="Курр-олог - бичеватель" category="71" did="1879080164" parentZoneId="1879063933" longitude="-18.144218" latitude="-36.043575"/>
<marker id="442556441" label="Курр-олог - метатель" category="71" did="1879080165" parentZoneId="1879063933" longitude="-18.144218" latitude="-36.043575"/>
<marker id="442556442" label="Истовый коркур" category="71" did="1879080166" parentZoneId="1879063933" longitude="-18.144218" latitude="-36.043575"/>
<marker id="442556443" label="Коркур-стрелок" category="71" did="1879080167" parentZoneId="1879063933" longitude="-18.144218" latitude="-36.043575"/>
<marker id="442556444" label="Курр-олог - бичеватель" category="71" did="1879080164" parentZoneId="1879063933" longitude="-18.251455" latitude="-35.944736"/>
<marker id="442556445" label="Курр-олог - метатель" category="71" did="1879080165" parentZoneId="1879063933" longitude="-18.251455" latitude="-35.944736"/>
<marker id="442556446" label="Истовый коркур" category="71" did="1879080166" parentZoneId="1879063933" longitude="-18.251455" latitude="-35.944736"/>
<marker id="442556447" label="Коркур-стрелок" category="71" did="1879080167" parentZoneId="1879063933" longitude="-18.251455" latitude="-35.944736"/>
<marker id="442560512" label="Листья индиго" category="73" did="1879054949" parentZoneId="1879063933" longitude="-18.751133" latitude="-34.84038"/>
<marker id="442560513" label="Клубника" category="73" did="1879061415" parentZoneId="1879063933" longitude="-18.751133" latitude="-34.84038"/>
<marker id="442560514" label="Малина" category="73" did="1879061417" parentZoneId="1879063933" longitude="-18.751133" latitude="-34.84038"/>
<marker id="442560515" label="Картофель" category="73" did="1879061257" parentZoneId="1879063933" longitude="-18.751133" latitude="-34.84038"/>
<marker id="442560516" label="Ежевика" category="73" did="1879061418" parentZoneId="1879063933" longitude="-18.751133" latitude="-34.84038"/>
<marker id="442560517" label="Спиноусый когтерой-падальщик" category="71" did="1879080140" parentZoneId="1879063933" longitude="-18.751133" latitude="-34.84038"/>
<marker id="442560518" label="Старый вепрь-копытник" category="71" did="1879080141" parentZoneId="1879063933" longitude="-18.751133" latitude="-34.84038"/>
<marker id="442560519" label="Муха-серпица" category="71" did="1879080142" parentZoneId="1879063933" longitude="-18.751133" latitude="-34.84038"/>
<marker id="442560520" label="Спиноусый когтерой-искатель" category="71" did="1879080143" parentZoneId="1879063933" longitude="-18.751133" latitude="-34.84038"/>
<marker id="442560521" label="Падальщик из пустоши" category="71" did="1879080147" parentZoneId="1879063933" longitude="-18.751133" latitude="-34.84038"/>
<marker id="442560522" label="Больной темный нетопырь" category="71" did="1879080148" parentZoneId="1879063933" longitude="-18.751133" latitude="-34.84038"/>
<marker id="442560523" label="Блуждающий снежный мохнач" category="71" did="1879080149" parentZoneId="1879063933" longitude="-18.751133" latitude="-34.84038"/>
<marker id="442560524" label="Самка снежного мохнача" category="71" did="1879080150" parentZoneId="1879063933" longitude="-18.751133" latitude="-34.84038"/>
<marker id="442560525" label="Отличный клеверный мед" category="73" did="1879061399" parentZoneId="1879063933" longitude="-18.751133" latitude="-34.84038"/>
<marker id="442560526" label="Молодой снежный мохнач" category="71" did="1879080151" parentZoneId="1879063933" longitude="-18.751133" latitude="-34.84038"/>
<marker id="442560527" label="Черника" category="73" did="1879061342" parentZoneId="1879063933" longitude="-18.751133" latitude="-34.84038"/>
<marker id="442560528" label="Листья индиго" category="73" did="1879054949" parentZoneId="1879063933" longitude="-18.602226" latitude="-34.851913"/>
<marker id="442560529" label="Клубника" category="73" did="1879061415" parentZoneId="1879063933" longitude="-18.602226" latitude="-34.851913"/>
<marker id="442560530" label="Малина" category="73" did="1879061417" parentZoneId="1879063933" longitude="-18.602226" latitude="-34.851913"/>
<marker id="442560531" label="Картофель" category="73" did="1879061257" parentZoneId="1879063933" longitude="-18.602226" latitude="-34.851913"/>
<marker id="442560532" label="Ежевика" category="73" did="1879061418" parentZoneId="1879063933" longitude="-18.602226" latitude="-34.851913"/>
<marker id="442560533" label="Спиноусый когтерой-падальщик" category="71" did="1879080140" parentZoneId="1879063933" longitude="-18.602226" latitude="-34.851913"/>
<marker id="442560534" label="Старый вепрь-копытник" category="71" did="1879080141" parentZoneId="1879063933" longitude="-18.602226" latitude="-34.851913"/>
<marker id="442560535" label="Муха-серпица" category="71" did="1879080142" parentZoneId="1879063933" longitude="-18.602226" latitude="-34.851913"/>
<marker id="442560536" label="Спиноусый когтерой-искатель" category="71" did="1879080143" parentZoneId="1879063933" longitude="-18.602226" latitude="-34.851913"/>
<marker id="442560537" label="Падальщик из пустоши" category="71" did="1879080147" parentZoneId="1879063933" longitude="-18.602226" latitude="-34.851913"/>
<marker id="442560538" label="Больной темный нетопырь" category="71" did="1879080148" parentZoneId="1879063933" longitude="-18.602226" latitude="-34.851913"/>
<marker id="442560539" label="Блуждающий снежный мохнач" category="71" did="1879080149" parentZoneId="1879063933" longitude="-18.602226" latitude="-34.851913"/>
<marker id="442560540" label="Самка снежного мохнача" category="71" did="1879080150" parentZoneId="1879063933" longitude="-18.602226" latitude="-34.851913"/>
<marker id="442560541" label="Отличный клеверный мед" category="73" did="1879061399" parentZoneId="1879063933" longitude="-18.602226" latitude="-34.851913"/>
<marker id="442560542" label="Молодой снежный мохнач" category="71" did="1879080151" parentZoneId="1879063933" longitude="-18.602226" latitude="-34.851913"/>
<marker id="442560543" label="Черника" category="73" did="1879061342" parentZoneId="1879063933" longitude="-18.602226" latitude="-34.851913"/>
<marker id="442560544" label="Листья индиго" category="73" did="1879054949" parentZoneId="1879063933" longitude="-18.591982" latitude="-34.962"/>
<marker id="442560545" label="Клубника" category="73" did="1879061415" parentZoneId="1879063933" longitude="-18.591982" latitude="-34.962"/>
<marker id="442560546" label="Малина" category="73" did="1879061417" parentZoneId="1879063933" longitude="-18.591982" latitude="-34.962"/>
<marker id="442560547" label="Картофель" category="73" did="1879061257" parentZoneId="1879063933" longitude="-18.591982" latitude="-34.962"/>
<marker id="442560548" label="Ежевика" category="73" did="1879061418" parentZoneId="1879063933" longitude="-18.591982" latitude="-34.962"/>
<marker id="442560549" label="Спиноусый когтерой-падальщик" category="71" did="1879080140" parentZoneId="1879063933" longitude="-18.591982" latitude="-34.962"/>
<marker id="442560550" label="Старый вепрь-копытник" category="71" did="1879080141" parentZoneId="1879063933" longitude="-18.591982" latitude="-34.962"/>
<marker id="442560551" label="Муха-серпица" category="71" did="1879080142" parentZoneId="1879063933" longitude="-18.591982" latitude="-34.962"/>
<marker id="442560552" label="Спиноусый когтерой-искатель" category="71" did="1879080143" parentZoneId="1879063933" longitude="-18.591982" latitude="-34.962"/>
<marker id="442560553" label="Падальщик из пустоши" category="71" did="1879080147" parentZoneId="1879063933" longitude="-18.591982" latitude="-34.962"/>
<marker id="442560554" label="Больной темный нетопырь" category="71" did="1879080148" parentZoneId="1879063933" longitude="-18.591982" latitude="-34.962"/>
<marker id="442560555" label="Блуждающий снежный мохнач" category="71" did="1879080149" parentZoneId="1879063933" longitude="-18.591982" latitude="-34.962"/>
<marker id="442560556" label="Самка снежного мохнача" category="71" did="1879080150" parentZoneId="1879063933" longitude="-18.591982" latitude="-34.962"/>
<marker id="442560557" label="Отличный клеверный мед" category="73" did="1879061399" parentZoneId="1879063933" longitude="-18.591982" latitude="-34.962"/>
<marker id="442560558" label="Молодой снежный мохнач" category="71" did="1879080151" parentZoneId="1879063933" longitude="-18.591982" latitude="-34.962"/>
<marker id="442560559" label="Черника" category="73" did="1879061342" parentZoneId="1879063933" longitude="-18.591982" latitude="-34.962"/>
<marker id="442560560" label="Листья индиго" category="73" did="1879054949" parentZoneId="1879063933" longitude="-18.696436" latitude="-35.03785"/>
<marker id="442560561" label="Клубника" category="73" did="1879061415" parentZoneId="1879063933" longitude="-18.696436" latitude="-35.03785"/>
<marker id="442560562" label="Малина" category="73" did="1879061417" parentZoneId="1879063933" longitude="-18.696436" latitude="-35.03785"/>
<marker id="442560563" label="Картофель" category="73" did="1879061257" parentZoneId="1879063933" longitude="-18.696436" latitude="-35.03785"/>
<marker id="442560564" label="Ежевика" category="73" did="1879061418" parentZoneId="1879063933" longitude="-18.696436" latitude="-35.03785"/>
<marker id="442560565" label="Спиноусый когтерой-падальщик" category="71" did="1879080140" parentZoneId="1879063933" longitude="-18.696436" latitude="-35.03785"/>
<marker id="442560566" label="Старый вепрь-копытник" category="71" did="1879080141" parentZoneId="1879063933" longitude="-18.696436" latitude="-35.03785"/>
<marker id="442560567" label="Муха-серпица" category="71" did="1879080142" parentZoneId="1879063933" longitude="-18.696436" latitude="-35.03785"/>
<marker id="442560568" label="Спиноусый когтерой-искатель" category="71" did="1879080143" parentZoneId="1879063933" longitude="-18.696436" latitude="-35.03785"/>
<marker id="442560569" label="Падальщик из пустоши" category="71" did="1879080147" parentZoneId="1879063933" longitude="-18.696436" latitude="-35.03785"/>
<marker id="442560570" label="Больной темный нетопырь" category="71" did="1879080148" parentZoneId="1879063933" longitude="-18.696436" latitude="-35.03785"/>
<marker id="442560571" label="Блуждающий снежный мохнач" category="71" did="1879080149" parentZoneId="1879063933" longitude="-18.696436" latitude="-35.03785"/>
<marker id="442560572" label="Самка снежного мохнача" category="71" did="1879080150" parentZoneId="1879063933" longitude="-18.696436" latitude="-35.03785"/>
<marker id="442560573" label="Отличный клеверный мед" category="73" did="1879061399" parentZoneId="1879063933" longitude="-18.696436" latitude="-35.03785"/>
<marker id="442560574" label="Молодой снежный мохнач" category="71" did="1879080151" parentZoneId="1879063933" longitude="-18.696436" latitude="-35.03785"/>
<marker id="442560575" label="Черника" category="73" did="1879061342" parentZoneId="1879063933" longitude="-18.696436" latitude="-35.03785"/>
<marker id="442560576" label="Листья индиго" category="73" did="1879054949" parentZoneId="1879063933" longitude="-18.07461" latitude="-34.89913"/>
<marker id="442560577" label="Клубника" category="73" did="1879061415" parentZoneId="1879063933" longitude="-18.07461" latitude="-34.89913"/>
<marker id="442560578" label="Малина" category="73" did="1879061417" parentZoneId="1879063933" longitude="-18.07461" latitude="-34.89913"/>
<marker id="442560579" label="Картофель" category="73" did="1879061257" parentZoneId="1879063933" longitude="-18.07461" latitude="-34.89913"/>
<marker id="442560580" label="Ежевика" category="73" did="1879061418" parentZoneId="1879063933" longitude="-18.07461" latitude="-34.89913"/>
<marker id="442560581" label="Спиноусый когтерой-падальщик" category="71" did="1879080140" parentZoneId="1879063933" longitude="-18.07461" latitude="-34.89913"/>
<marker id="442560582" label="Старый вепрь-копытник" category="71" did="1879080141" parentZoneId="1879063933" longitude="-18.07461" latitude="-34.89913"/>
<marker id="442560583" label="Муха-серпица" category="71" did="1879080142" parentZoneId="1879063933" longitude="-18.07461" latitude="-34.89913"/>
<marker id="442560584" label="Спиноусый когтерой-искатель" category="71" did="1879080143" parentZoneId="1879063933" longitude="-18.07461" latitude="-34.89913"/>
<marker id="442560585" label="Падальщик из пустоши" category="71" did="1879080147" parentZoneId="1879063933" longitude="-18.07461" latitude="-34.89913"/>
<marker id="442560586" label="Больной темный нетопырь" category="71" did="1879080148" parentZoneId="1879063933" longitude="-18.07461" latitude="-34.89913"/>
<marker id="442560587" label="Блуждающий снежный мохнач" category="71" did="1879080149" parentZoneId="1879063933" longitude="-18.07461" latitude="-34.89913"/>
<marker id="442560588" label="Самка снежного мохнача" category="71" did="1879080150" parentZoneId="1879063933" longitude="-18.07461" latitude="-34.89913"/>
<marker id="442560589" label="Отличный клеверный мед" category="73" did="1879061399" parentZoneId="1879063933" longitude="-18.07461" latitude="-34.89913"/>
<marker id="442560590" label="Молодой снежный мохнач" category="71" did="1879080151" parentZoneId="1879063933" longitude="-18.07461" latitude="-34.89913"/>
<marker id="442560591" label="Черника" category="73" did="1879061342" parentZoneId="1879063933" longitude="-18.07461" latitude="-34.89913"/>
<marker id="442560592" label="Листья индиго" category="73" did="1879054949" parentZoneId="1879063933" longitude="-18.071894" latitude="-35.045887"/>
<marker id="442560593" label="Клубника" category="73" did="1879061415" parentZoneId="1879063933" longitude="-18.071894" latitude="-35.045887"/>
<marker id="442560594" label="Малина" category="73" did="1879061417" parentZoneId="1879063933" longitude="-18.071894" latitude="-35.045887"/>
<marker id="442560595" label="Картофель" category="73" did="1879061257" parentZoneId="1879063933" longitude="-18.071894" latitude="-35.045887"/>
<marker id="442560596" label="Ежевика" category="73" did="1879061418" parentZoneId="1879063933" longitude="-18.071894" latitude="-35.045887"/>
<marker id="442560597" label="Спиноусый когтерой-падальщик" category="71" did="1879080140" parentZoneId="1879063933" longitude="-18.071894" latitude="-35.045887"/>
<marker id="442560598" label="Старый вепрь-копытник" category="71" did="1879080141" parentZoneId="1879063933" longitude="-18.071894" latitude="-35.045887"/>
<marker id="442560599" label="Муха-серпица" category="71" did="1879080142" parentZoneId="1879063933" longitude="-18.071894" latitude="-35.045887"/>
<marker id="442560600" label="Спиноусый когтерой-искатель" category="71" did="1879080143" parentZoneId="1879063933" longitude="-18.071894" latitude="-35.045887"/>
<marker id="442560601" label="Падальщик из пустоши" category="71" did="1879080147" parentZoneId="1879063933" longitude="-18.071894" latitude="-35.045887"/>
<marker id="442560602" label="Больной темный нетопырь" category="71" did="1879080148" parentZoneId="1879063933" longitude="-18.071894" latitude="-35.045887"/>
<marker id="442560603" label="Блуждающий снежный мохнач" category="71" did="1879080149" parentZoneId="1879063933" longitude="-18.071894" latitude="-35.045887"/>
<marker id="442560604" label="Самка снежного мохнача" category="71" did="1879080150" parentZoneId="1879063933" longitude="-18.071894" latitude="-35.045887"/>
<marker id="442560605" label="Отличный клеверный мед" category="73" did="1879061399" parentZoneId="1879063933" longitude="-18.071894" latitude="-35.045887"/>
<marker id="442560606" label="Молодой снежный мохнач" category="71" did="1879080151" parentZoneId="1879063933" longitude="-18.071894" latitude="-35.045887"/>
<marker id="442560607" label="Черника" category="73" did="1879061342" parentZoneId="1879063933" longitude="-18.071894" latitude="-35.045887"/>
<marker id="442560608" label="Листья индиго" category="73" did="1879054949" parentZoneId="1879063933" longitude="-18.051123" latitude="-35.23823"/>
<marker id="442560609" label="Клубника" category="73" did="1879061415" parentZoneId="1879063933" longitude="-18.051123" latitude="-35.23823"/>
<marker id="442560610" label="Малина" category="73" did="1879061417" parentZoneId="1879063933" longitude="-18.051123" latitude="-35.23823"/>
<marker id="442560611" label="Картофель" category="73" did="1879061257" parentZoneId="1879063933" longitude="-18.051123" latitude="-35.23823"/>
<marker id="442560612" label="Ежевика" category="73" did="1879061418" parentZoneId="1879063933" longitude="-18.051123" latitude="-35.23823"/>
<marker id="442560613" label="Спиноусый когтерой-падальщик" category="71" did="1879080140" parentZoneId="1879063933" longitude="-18.051123" latitude="-35.23823"/>
<marker id="442560614" label="Старый вепрь-копытник" category="71" did="1879080141" parentZoneId="1879063933" longitude="-18.051123" latitude="-35.23823"/>
<marker id="442560615" label="Муха-серпица" category="71" did="1879080142" parentZoneId="1879063933" longitude="-18.051123" latitude="-35.23823"/>
<marker id="442560616" label="Спиноусый когтерой-искатель" category="71" did="1879080143" parentZoneId="1879063933" longitude="-18.051123" latitude="-35.23823"/>
<marker id="442560617" label="Падальщик из пустоши" category="71" did="1879080147" parentZoneId="1879063933" longitude="-18.051123" latitude="-35.23823"/>
<marker id="442560618" label="Больной темный нетопырь" category="71" did="1879080148" parentZoneId="1879063933" longitude="-18.051123" latitude="-35.23823"/>
<marker id="442560619" label="Блуждающий снежный мохнач" category="71" did="1879080149" parentZoneId="1879063933" longitude="-18.051123" latitude="-35.23823"/>
<marker id="442560620" label="Самка снежного мохнача" category="71" did="1879080150" parentZoneId="1879063933" longitude="-18.051123" latitude="-35.23823"/>
<marker id="442560621" label="Отличный клеверный мед" category="73" did="1879061399" parentZoneId="1879063933" longitude="-18.051123" latitude="-35.23823"/>
<marker id="442560622" label="Молодой снежный мохнач" category="71" did="1879080151" parentZoneId="1879063933" longitude="-18.051123" latitude="-35.23823"/>
<marker id="442560623" label="Черника" category="73" did="1879061342" parentZoneId="1879063933" longitude="-18.051123" latitude="-35.23823"/>
<marker id="442560624" label="Листья индиго" category="73" did="1879054949" parentZoneId="1879063933" longitude="-18.046347" latitude="-35.41134"/>
<marker id="442560625" label="Клубника" category="73" did="1879061415" parentZoneId="1879063933" longitude="-18.046347" latitude="-35.41134"/>
<marker id="442560626" label="Малина" category="73" did="1879061417" parentZoneId="1879063933" longitude="-18.046347" latitude="-35.41134"/>
<marker id="442560627" label="Картофель" category="73" did="1879061257" parentZoneId="1879063933" longitude="-18.046347" latitude="-35.41134"/>
<marker id="442560628" label="Ежевика" category="73" did="1879061418" parentZoneId="1879063933" longitude="-18.046347" latitude="-35.41134"/>
<marker id="442560629" label="Спиноусый когтерой-падальщик" category="71" did="1879080140" parentZoneId="1879063933" longitude="-18.046347" latitude="-35.41134"/>
<marker id="442560630" label="Старый вепрь-копытник" category="71" did="1879080141" parentZoneId="1879063933" longitude="-18.046347" latitude="-35.41134"/>
<marker id="442560631" label="Муха-серпица" category="71" did="1879080142" parentZoneId="1879063933" longitude="-18.046347" latitude="-35.41134"/>
<marker id="442560632" label="Спиноусый когтерой-искатель" category="71" did="1879080143" parentZoneId="1879063933" longitude="-18.046347" latitude="-35.41134"/>
<marker id="442560633" label="Падальщик из пустоши" category="71" did="1879080147" parentZoneId="1879063933" longitude="-18.046347" latitude="-35.41134"/>
<marker id="442560634" label="Больной темный нетопырь" category="71" did="1879080148" parentZoneId="1879063933" longitude="-18.046347" latitude="-35.41134"/>
<marker id="442560635" label="Блуждающий снежный мохнач" category="71" did="1879080149" parentZoneId="1879063933" longitude="-18.046347" latitude="-35.41134"/>
<marker id="442560636" label="Самка снежного мохнача" category="71" did="1879080150" parentZoneId="1879063933" longitude="-18.046347" latitude="-35.41134"/>
<marker id="442560637" label="Отличный клеверный мед" category="73" did="1879061399" parentZoneId="1879063933" longitude="-18.046347" latitude="-35.41134"/>
<marker id="442560638" label="Молодой снежный мохнач" category="71" did="1879080151" parentZoneId="1879063933" longitude="-18.046347" latitude="-35.41134"/>
<marker id="442560639" label="Черника" category="73" did="1879061342" parentZoneId="1879063933" longitude="-18.046347" latitude="-35.41134"/>
<marker id="442679296" label="Листья индиго" category="73" did="1879054949" parentZoneId="1879094891" longitude="-16.524883" latitude="-37.774353"/>
<marker id="442679297" label="Злобный длиннорог" category="71" did="1879095031" parentZoneId="1879094891" longitude="-16.524883" latitude="-37.774353"/>
<marker id="442679298" label="Клубника" category="73" did="1879061415" parentZoneId="1879094891" longitude="-16.524883" latitude="-37.774353"/>
<marker id="442679299" label="Отличный клеверный мед" category="73" did="1879061399" parentZoneId="1879094891" longitude="-16.524883" latitude="-37.774353"/>
<marker id="442679300" label="Послушный длиннорог" category="71" did="1879095032" parentZoneId="1879094891" longitude="-16.524883" latitude="-37.774353"/>
<marker id="442679301" label="Ползучий скальный ящер" category="71" did="1879095049" parentZoneId="1879094891" longitude="-16.524883" latitude="-37.774353"/>
<marker id="442679302" label="Малина" category="73" did="1879061417" parentZoneId="1879094891" longitude="-16.524883" latitude="-37.774353"/>
<marker id="442679303" label="Картофель" category="73" did="1879061257" parentZoneId="1879094891" longitude="-16.524883" latitude="-37.774353"/>
<marker id="442679304" label="Ежевика" category="73" did="1879061418" parentZoneId="1879094891" longitude="-16.524883" latitude="-37.774353"/>
<marker id="442679305" label="Хвостатая сколопендра" category="71" did="1879095035" parentZoneId="1879094891" longitude="-16.524883" latitude="-37.774353"/>
<marker id="442679306" label="Блуждающий каменный тролль" category="71" did="1879095036" parentZoneId="1879094891" longitude="-16.524883" latitude="-37.774353"/>
<marker id="442679307" label="Черника" category="73" did="1879061342" parentZoneId="1879094891" longitude="-16.524883" latitude="-37.774353"/>
<marker id="442679308" label="Листья индиго" category="73" did="1879054949" parentZoneId="1879094891" longitude="-16.457235" latitude="-37.65779"/>
<marker id="442679309" label="Злобный длиннорог" category="71" did="1879095031" parentZoneId="1879094891" longitude="-16.457235" latitude="-37.65779"/>
<marker id="442679310" label="Клубника" category="73" did="1879061415" parentZoneId="1879094891" longitude="-16.457235" latitude="-37.65779"/>
<marker id="442679311" label="Отличный клеверный мед" category="73" did="1879061399" parentZoneId="1879094891" longitude="-16.457235" latitude="-37.65779"/>
<marker id="442679312" label="Послушный длиннорог" category="71" did="1879095032" parentZoneId="1879094891" longitude="-16.457235" latitude="-37.65779"/>
<marker id="442679313" label="Ползучий скальный ящер" category="71" did="1879095049" parentZoneId="1879094891" longitude="-16.457235" latitude="-37.65779"/>
<marker id="442679314" label="Малина" category="73" did="1879061417" parentZoneId="1879094891" longitude="-16.457235" latitude="-37.65779"/>
<marker id="442679315" label="Картофель" category="73" did="1879061257" parentZoneId="1879094891" longitude="-16.457235" latitude="-37.65779"/>
<marker id="442679316" label="Ежевика" category="73" did="1879061418" parentZoneId="1879094891" longitude="-16.457235" latitude="-37.65779"/>
<marker id="442679317" label="Хвостатая сколопендра" category="71" did="1879095035" parentZoneId="1879094891" longitude="-16.457235" latitude="-37.65779"/>
<marker id="442679318" label="Блуждающий каменный тролль" category="71" did="1879095036" parentZoneId="1879094891" longitude="-16.457235" latitude="-37.65779"/>
<marker id="442679319" label="Черника" category="73" did="1879061342" parentZoneId="1879094891" longitude="-16.457235" latitude="-37.65779"/>
<marker id="442679320" label="Листья индиго" category="73" did="1879054949" parentZoneId="1879094891" longitude="-16.4904" latitude="-37.503105"/>
<marker id="442679321" label="Злобный длиннорог" category="71" did="1879095031" parentZoneId="1879094891" longitude="-16.4904" latitude="-37.503105"/>
<marker id="442679322" label="Клубника" category="73" did="1879061415" parentZoneId="1879094891" longitude="-16.4904" latitude="-37.503105"/>
<marker id="442679323" label="Отличный клеверный мед" category="73" did="1879061399" parentZoneId="1879094891" longitude="-16.4904" latitude="-37.503105"/>
<marker id="442679324" label="Послушный длиннорог" category="71" did="1879095032" parentZoneId="1879094891" longitude="-16.4904" latitude="-37.503105"/>
<marker id="442679325" label="Ползучий скальный ящер" category="71" did="1879095049" parentZoneId="1879094891" longitude="-16.4904" latitude="-37.503105"/>
<marker id="442679326" label="Малина" category="73" did="1879061417" parentZoneId="1879094891" longitude="-16.4904" latitude="-37.503105"/>
<marker id="442679327" label="Картофель" category="73" did="1879061257" parentZoneId="1879094891" longitude="-16.4904" latitude="-37.503105"/>
<marker id="442679328" label="Ежевика" category="73" did="1879061418" parentZoneId="1879094891" longitude="-16.4904" latitude="-37.503105"/>
<marker id="442679329" label="Хвостатая сколопендра" category="71" did="1879095035" parentZoneId="1879094891" longitude="-16.4904" latitude="-37.503105"/>
<marker id="442679330" label="Блуждающий каменный тролль" category="71" did="1879095036" parentZoneId="1879094891" longitude="-16.4904" latitude="-37.503105"/>
<marker id="442679331" label="Черника" category="73" did="1879061342" parentZoneId="1879094891" longitude="-16.4904" latitude="-37.503105"/>
<marker id="442679332" label="Листья индиго" category="73" did="1879054949" parentZoneId="1879094891" longitude="-16.432705" latitude="-37.26334"/>
<marker id="442679333" label="Злобный длиннорог" category="71" did="1879095031" parentZoneId="1879094891" longitude="-16.432705" latitude="-37.26334"/>
<marker id="442679334" label="Клубника" category="73" did="1879061415" parentZoneId="1879094891" longitude="-16.432705" latitude="-37.26334"/>
<marker id="442679335" label="Отличный клеверный мед" category="73" did="1879061399" parentZoneId="1879094891" longitude="-16.432705" latitude="-37.26334"/>
<marker id="442679336" label="Послушный длиннорог" category="71" did="1879095032" parentZoneId="1879094891" longitude="-16.432705" latitude="-37.26334"/>
<marker id="442679337" label="Ползучий скальный ящер" category="71" did="1879095049" parentZoneId="1879094891" longitude="-16.432705" latitude="-37.26334"/>
<marker id="442679338" label="Малина" category="73" did="1879061417" parentZoneId="1879094891" longitude="-16.432705" latitude="-37.26334"/>
<marker id="442679339" label="Картофель" category="73" did="1879061257" parentZoneId="1879094891" longitude="-16.432705" latitude="-37.26334"/>
<marker id="442679340" label="Ежевика" category="73" did="1879061418" parentZoneId="1879094891" longitude="-16.432705" latitude="-37.26334"/>
<marker id="442679341" label="Хвостатая сколопендра" category="71" did="1879095035" parentZoneId="1879094891" longitude="-16.432705" latitude="-37.26334"/>
<marker id="442679342" label="Блуждающий каменный тролль" category="71" did="1879095036" parentZoneId="1879094891" longitude="-16.432705" latitude="-37.26334"/>
<marker id="442679343" label="Черника" category="73" did="1879061342" parentZoneId="1879094891" longitude="-16.432705" latitude="-37.26334"/>
<marker id="442687488" label="Молодой вожак лесных троллей" category="71" did="1879095045" parentZoneId="1879094891" longitude="-16.727041" latitude="-35.635986"/>
<marker id="442687489" label="Молодой лесной тролль - воин" category="71" did="1879095046" parentZoneId="1879094891" longitude="-16.727041" latitude="-35.635986"/>
<marker id="442687490" label="Молодой лесной тролль - метатель" category="71" did="1879095047" parentZoneId="1879094891" longitude="-16.727041" latitude="-35.635986"/>
<marker id="442687491" label="Цепкий озерный кочун" category="71" did="1879095033" parentZoneId="1879094891" longitude="-16.727041" latitude="-35.635986"/>
<marker id="442687492" label="Озерный кочун" category="71" did="1879095034" parentZoneId="1879094891" longitude="-16.727041" latitude="-35.635986"/>
<marker id="442687493" label="Молодой вожак лесных троллей" category="71" did="1879095045" parentZoneId="1879094891" longitude="-16.715536" latitude="-35.682373"/>
<marker id="442687494" label="Молодой лесной тролль - воин" category="71" did="1879095046" parentZoneId="1879094891" longitude="-16.715536" latitude="-35.682373"/>
<marker id="442687495" label="Молодой лесной тролль - метатель" category="71" did="1879095047" parentZoneId="1879094891" longitude="-16.715536" latitude="-35.682373"/>
<marker id="442687496" label="Цепкий озерный кочун" category="71" did="1879095033" parentZoneId="1879094891" longitude="-16.715536" latitude="-35.682373"/>
<marker id="442687497" label="Озерный кочун" category="71" did="1879095034" parentZoneId="1879094891" longitude="-16.715536" latitude="-35.682373"/>
<marker id="442687498" label="Молодой вожак лесных троллей" category="71" did="1879095045" parentZoneId="1879094891" longitude="-16.514277" latitude="-35.849052"/>
<marker id="442687499" label="Молодой лесной тролль - воин" category="71" did="1879095046" parentZoneId="1879094891" longitude="-16.514277" latitude="-35.849052"/>
<marker id="442687500" label="Молодой лесной тролль - метатель" category="71" did="1879095047" parentZoneId="1879094891" longitude="-16.514277" latitude="-35.849052"/>
<marker id="442687501" label="Цепкий озерный кочун" category="71" did="1879095033" parentZoneId="1879094891" longitude="-16.514277" latitude="-35.849052"/>
<marker id="442687502" label="Озерный кочун" category="71" did="1879095034" parentZoneId="1879094891" longitude="-16.514277" latitude="-35.849052"/>
<marker id="442687503" label="Молодой вожак лесных троллей" category="71" did="1879095045" parentZoneId="1879094891" longitude="-16.749414" latitude="-35.855965"/>
<marker id="442687504" label="Молодой лесной тролль - воин" category="71" did="1879095046" parentZoneId="1879094891" longitude="-16.749414" latitude="-35.855965"/>
<marker id="442687505" label="Молодой лесной тролль - метатель" category="71" did="1879095047" parentZoneId="1879094891" longitude="-16.749414" latitude="-35.855965"/>
<marker id="442687506" label="Цепкий озерный кочун" category="71" did="1879095033" parentZoneId="1879094891" longitude="-16.749414" latitude="-35.855965"/>
<marker id="442687507" label="Озерный кочун" category="71" did="1879095034" parentZoneId="1879094891" longitude="-16.749414" latitude="-35.855965"/>
<marker id="442687508" label="Молодой вожак лесных троллей" category="71" did="1879095045" parentZoneId="1879094891" longitude="-16.900908" latitude="-35.7933"/>
<marker id="442687509" label="Молодой лесной тролль - воин" category="71" did="1879095046" parentZoneId="1879094891" longitude="-16.900908" latitude="-35.7933"/>
<marker id="442687510" label="Молодой лесной тролль - метатель" category="71" did="1879095047" parentZoneId="1879094891" longitude="-16.900908" latitude="-35.7933"/>
<marker id="442687511" label="Цепкий озерный кочун" category="71" did="1879095033" parentZoneId="1879094891" longitude="-16.900908" latitude="-35.7933"/>
<marker id="442687512" label="Озерный кочун" category="71" did="1879095034" parentZoneId="1879094891" longitude="-16.900908" latitude="-35.7933"/>
<marker id="442687513" label="Молодой вожак лесных троллей" category="71" did="1879095045" parentZoneId="1879094891" longitude="-16.471855" latitude="-35.653328"/>
<marker id="442687514" label="Молодой лесной тролль - воин" category="71" did="1879095046" parentZoneId="1879094891" longitude="-16.471855" latitude="-35.653328"/>
<marker id="442687515" label="Молодой лесной тролль - метатель" category="71" did="1879095047" parentZoneId="1879094891" longitude="-16.471855" latitude="-35.653328"/>
<marker id="442687516" label="Цепкий озерный кочун" category="71" did="1879095033" parentZoneId="1879094891" longitude="-16.471855" latitude="-35.653328"/>
<marker id="442687517" label="Озерный кочун" category="71" did="1879095034" parentZoneId="1879094891" longitude="-16.471855" latitude="-35.653328"/>
<marker id="442687518" label="Молодой вожак лесных троллей" category="71" did="1879095045" parentZoneId="1879094891" longitude="-16.6187" latitude="-35.639053"/>
<marker id="442687519" label="Молодой лесной тролль - воин" category="71" did="1879095046" parentZoneId="1879094891" longitude="-16.6187" latitude="-35.639053"/>
<marker id="442687520" label="Молодой лесной тролль - метатель" category="71" did="1879095047" parentZoneId="1879094891" longitude="-16.6187" latitude="-35.639053"/>
<marker id="442687521" label="Цепкий озерный кочун" category="71" did="1879095033" parentZoneId="1879094891" longitude="-16.6187" latitude="-35.639053"/>
<marker id="442687522" label="Озерный кочун" category="71" did="1879095034" parentZoneId="1879094891" longitude="-16.6187" latitude="-35.639053"/>
<marker id="442691584" label="Эрин Сингор" category="43" did="1879096337" parentZoneId="1879094891" longitude="-16.556953" latitude="-35.38417"/>
<marker id="442691585" label="Молодой вожак лесных троллей" category="71" did="1879095045" parentZoneId="1879094891" longitude="-16.89124" latitude="-35.05376"/>
<marker id="442691586" label="Молодой лесной тролль - воин" category="71" did="1879095046" parentZoneId="1879094891" longitude="-16.89124" latitude="-35.05376"/>
<marker id="442691587" label="Молодой лесной тролль - метатель" category="71" did="1879095047" parentZoneId="1879094891" longitude="-16.89124" latitude="-35.05376"/>
<marker id="442691588" label="Цепкий озерный кочун" category="71" did="1879095033" parentZoneId="1879094891" longitude="-16.89124" latitude="-35.05376"/>
<marker id="442691589" label="Озерный кочун" category="71" did="1879095034" parentZoneId="1879094891" longitude="-16.89124" latitude="-35.05376"/>
<marker id="442691590" label="Молодой вожак лесных троллей" category="71" did="1879095045" parentZoneId="1879094891" longitude="-16.74457" latitude="-35.493484"/>
<marker id="442691591" label="Молодой лесной тролль - воин" category="71" did="1879095046" parentZoneId="1879094891" longitude="-16.74457" latitude="-35.493484"/>
<marker id="442691592" label="Молодой лесной тролль - метатель" category="71" did="1879095047" parentZoneId="1879094891" longitude="-16.74457" latitude="-35.493484"/>
<marker id="442691593" label="Цепкий озерный кочун" category="71" did="1879095033" parentZoneId="1879094891" longitude="-16.74457" latitude="-35.493484"/>
<marker id="442691594" label="Озерный кочун" category="71" did="1879095034" parentZoneId="1879094891" longitude="-16.74457" latitude="-35.493484"/>
<marker id="442691595" label="Молодой вожак лесных троллей" category="71" did="1879095045" parentZoneId="1879094891" longitude="-16.762197" latitude="-35.509453"/>
<marker id="442691596" label="Молодой лесной тролль - воин" category="71" did="1879095046" parentZoneId="1879094891" longitude="-16.762197" latitude="-35.509453"/>
<marker id="442691597" label="Молодой лесной тролль - метатель" category="71" did="1879095047" parentZoneId="1879094891" longitude="-16.762197" latitude="-35.509453"/>
<marker id="442691598" label="Цепкий озерный кочун" category="71" did="1879095033" parentZoneId="1879094891" longitude="-16.762197" latitude="-35.509453"/>
<marker id="442691599" label="Озерный кочун" category="71" did="1879095034" parentZoneId="1879094891" longitude="-16.762197" latitude="-35.509453"/>
<marker id="442691600" label="Молодой вожак лесных троллей" category="71" did="1879095045" parentZoneId="1879094891" longitude="-16.500946" latitude="-35.51026"/>
<marker id="442691601" label="Молодой лесной тролль - воин" category="71" did="1879095046" parentZoneId="1879094891" longitude="-16.500946" latitude="-35.51026"/>
<marker id="442691602" label="Молодой лесной тролль - метатель" category="71" did="1879095047" parentZoneId="1879094891" longitude="-16.500946" latitude="-35.51026"/>
<marker id="442691603" label="Цепкий озерный кочун" category="71" did="1879095033" parentZoneId="1879094891" longitude="-16.500946" latitude="-35.51026"/>
<marker id="442691604" label="Озерный кочун" category="71" did="1879095034" parentZoneId="1879094891" longitude="-16.500946" latitude="-35.51026"/>
<marker id="442691605" label="Молодой вожак лесных троллей" category="71" did="1879095045" parentZoneId="1879094891" longitude="-16.545761" latitude="-35.488827"/>
<marker id="442691606" label="Молодой лесной тролль - воин" category="71" did="1879095046" parentZoneId="1879094891" longitude="-16.545761" latitude="-35.488827"/>
<marker id="442691607" label="Молодой лесной тролль - метатель" category="71" did="1879095047" parentZoneId="1879094891" longitude="-16.545761" latitude="-35.488827"/>
<marker id="442691608" label="Цепкий озерный кочун" category="71" did="1879095033" parentZoneId="1879094891" longitude="-16.545761" latitude="-35.488827"/>
<marker id="442691609" label="Озерный кочун" category="71" did="1879095034" parentZoneId="1879094891" longitude="-16.545761" latitude="-35.488827"/>
<marker id="442691610" label="Молодой вожак лесных троллей" category="71" did="1879095045" parentZoneId="1879094891" longitude="-16.532997" latitude="-35.54489"/>
<marker id="442691611" label="Молодой лесной тролль - воин" category="71" did="1879095046" parentZoneId="1879094891" longitude="-16.532997" latitude="-35.54489"/>
<marker id="442691612" label="Молодой лесной тролль - метатель" category="71" did="1879095047" parentZoneId="1879094891" longitude="-16.532997" latitude="-35.54489"/>
<marker id="442691613" label="Цепкий озерный кочун" category="71" did="1879095033" parentZoneId="1879094891" longitude="-16.532997" latitude="-35.54489"/>
<marker id="442691614" label="Озерный кочун" category="71" did="1879095034" parentZoneId="1879094891" longitude="-16.532997" latitude="-35.54489"/>
<marker id="442691615" label="Молодой вожак лесных троллей" category="71" did="1879095045" parentZoneId="1879094891" longitude="-16.580116" latitude="-35.162586"/>
<marker id="442691616" label="Молодой лесной тролль - воин" category="71" did="1879095046" parentZoneId="1879094891" longitude="-16.580116" latitude="-35.162586"/>
<marker id="442691617" label="Молодой лесной тролль - метатель" category="71" did="1879095047" parentZoneId="1879094891" longitude="-16.580116" latitude="-35.162586"/>
<marker id="442691618" label="Цепкий озерный кочун" category="71" did="1879095033" parentZoneId="1879094891" longitude="-16.580116" latitude="-35.162586"/>
<marker id="442691619" label="Озерный кочун" category="71" did="1879095034" parentZoneId="1879094891" longitude="-16.580116" latitude="-35.162586"/>
<marker id="442691620" label="Молодой вожак лесных троллей" category="71" did="1879095045" parentZoneId="1879094891" longitude="-16.888184" latitude="-35.01694"/>
<marker id="442691621" label="Молодой лесной тролль - воин" category="71" did="1879095046" parentZoneId="1879094891" longitude="-16.888184" latitude="-35.01694"/>
<marker id="442691622" label="Молодой лесной тролль - метатель" category="71" did="1879095047" parentZoneId="1879094891" longitude="-16.888184" latitude="-35.01694"/>
<marker id="442691623" label="Цепкий озерный кочун" category="71" did="1879095033" parentZoneId="1879094891" longitude="-16.888184" latitude="-35.01694"/>
<marker id="442691624" label="Озерный кочун" category="71" did="1879095034" parentZoneId="1879094891" longitude="-16.888184" latitude="-35.01694"/>
<marker id="442691625" label="Молодой вожак лесных троллей" category="71" did="1879095045" parentZoneId="1879094891" longitude="-16.849335" latitude="-35.055458"/>
<marker id="442691626" label="Молодой лесной тролль - воин" category="71" did="1879095046" parentZoneId="1879094891" longitude="-16.849335" latitude="-35.055458"/>
<marker id="442691627" label="Молодой лесной тролль - метатель" category="71" did="1879095047" parentZoneId="1879094891" longitude="-16.849335" latitude="-35.055458"/>
<marker id="442691628" label="Цепкий озерный кочун" category="71" did="1879095033" parentZoneId="1879094891" longitude="-16.849335" latitude="-35.055458"/>
<marker id="442691629" label="Озерный кочун" category="71" did="1879095034" parentZoneId="1879094891" longitude="-16.849335" latitude="-35.055458"/>
<marker id="442691630" label="Молодой вожак лесных троллей" category="71" did="1879095045" parentZoneId="1879094891" longitude="-16.870136" latitude="-35.01873"/>
<marker id="442691631" label="Молодой лесной тролль - воин" category="71" did="1879095046" parentZoneId="1879094891" longitude="-16.870136" latitude="-35.01873"/>
<marker id="442691632" label="Молодой лесной тролль - метатель" category="71" did="1879095047" parentZoneId="1879094891" longitude="-16.870136" latitude="-35.01873"/>
<marker id="442691633" label="Цепкий озерный кочун" category="71" did="1879095033" parentZoneId="1879094891" longitude="-16.870136" latitude="-35.01873"/>
<marker id="442691634" label="Озерный кочун" category="71" did="1879095034" parentZoneId="1879094891" longitude="-16.870136" latitude="-35.01873"/>
<marker id="442691635" label="Молодой вожак лесных троллей" category="71" did="1879095045" parentZoneId="1879094891" longitude="-16.570683" latitude="-35.239246"/>
<marker id="442691636" label="Молодой лесной тролль - воин" category="71" did="1879095046" parentZoneId="1879094891" longitude="-16.570683" latitude="-35.239246"/>
<marker id="442691637" label="Молодой лесной тролль - метатель" category="71" did="1879095047" parentZoneId="1879094891" longitude="-16.570683" latitude="-35.239246"/>
<marker id="442691638" label="Цепкий озерный кочун" category="71" did="1879095033" parentZoneId="1879094891" longitude="-16.570683" latitude="-35.239246"/>
<marker id="442691639" label="Озерный кочун" category="71" did="1879095034" parentZoneId="1879094891" longitude="-16.570683" latitude="-35.239246"/>
<marker id="442691640" label="Молодой вожак лесных троллей" category="71" did="1879095045" parentZoneId="1879094891" longitude="-16.440733" latitude="-35.165955"/>
<marker id="442691641" label="Молодой лесной тролль - воин" category="71" did="1879095046" parentZoneId="1879094891" longitude="-16.440733" latitude="-35.165955"/>
<marker id="442691642" label="Молодой лесной тролль - метатель" category="71" did="1879095047" parentZoneId="1879094891" longitude="-16.440733" latitude="-35.165955"/>
<marker id="442691643" label="Цепкий озерный кочун" category="71" did="1879095033" parentZoneId="1879094891" longitude="-16.440733" latitude="-35.165955"/>
<marker id="442691644" label="Озерный кочун" category="71" did="1879095034" parentZoneId="1879094891" longitude="-16.440733" latitude="-35.165955"/>
<marker id="442691645" label="Молодой вожак лесных троллей" category="71" did="1879095045" parentZoneId="1879094891" longitude="-16.736885" latitude="-35.176582"/>
<marker id="442691646" label="Молодой лесной тролль - воин" category="71" did="1879095046" parentZoneId="1879094891" longitude="-16.736885" latitude="-35.176582"/>
<marker id="442691647" label="Молодой лесной тролль - метатель" category="71" did="1879095047" parentZoneId="1879094891" longitude="-16.736885" latitude="-35.176582"/>
<marker id="442691648" label="Цепкий озерный кочун" category="71" did="1879095033" parentZoneId="1879094891" longitude="-16.736885" latitude="-35.176582"/>
<marker id="442691649" label="Озерный кочун" category="71" did="1879095034" parentZoneId="1879094891" longitude="-16.736885" latitude="-35.176582"/>
<marker id="442691650" label="Молодой вожак лесных троллей" category="71" did="1879095045" parentZoneId="1879094891" longitude="-16.443495" latitude="-35.562645"/>
<marker id="442691651" label="Молодой лесной тролль - воин" category="71" did="1879095046" parentZoneId="1879094891" longitude="-16.443495" latitude="-35.562645"/>
<marker id="442691652" label="Молодой лесной тролль - метатель" category="71" did="1879095047" parentZoneId="1879094891" longitude="-16.443495" latitude="-35.562645"/>
<marker id="442691653" label="Цепкий озерный кочун" category="71" did="1879095033" parentZoneId="1879094891" longitude="-16.443495" latitude="-35.562645"/>
<marker id="442691654" label="Озерный кочун" category="71" did="1879095034" parentZoneId="1879094891" longitude="-16.443495" latitude="-35.562645"/>
<marker id="442691655" label="Молодой вожак лесных троллей" category="71" did="1879095045" parentZoneId="1879094891" longitude="-16.573399" latitude="-35.39964"/>
<marker id="442691656" label="Молодой лесной тролль - воин" category="71" did="1879095046" parentZoneId="1879094891" longitude="-16.573399" latitude="-35.39964"/>
<marker id="442691657" label="Молодой лесной тролль - метатель" category="71" did="1879095047" parentZoneId="1879094891" longitude="-16.573399" latitude="-35.39964"/>
<marker id="442691658" label="Цепкий озерный кочун" category="71" did="1879095033" parentZoneId="1879094891" longitude="-16.573399" latitude="-35.39964"/>
<marker id="442691659" label="Озерный кочун" category="71" did="1879095034" parentZoneId="1879094891" longitude="-16.573399" latitude="-35.39964"/>
<marker id="442691660" label="Молодой вожак лесных троллей" category="71" did="1879095045" parentZoneId="1879094891" longitude="-16.449501" latitude="-35.330887"/>
<marker id="442691661" label="Молодой лесной тролль - воин" category="71" did="1879095046" parentZoneId="1879094891" longitude="-16.449501" latitude="-35.330887"/>
<marker id="442691662" label="Молодой лесной тролль - метатель" category="71" did="1879095047" parentZoneId="1879094891" longitude="-16.449501" latitude="-35.330887"/>
<marker id="442691663" label="Цепкий озерный кочун" category="71" did="1879095033" parentZoneId="1879094891" longitude="-16.449501" latitude="-35.330887"/>
<marker id="442691664" label="Озерный кочун" category="71" did="1879095034" parentZoneId="1879094891" longitude="-16.449501" latitude="-35.330887"/>
<marker id="442691665" label="Молодой вожак лесных троллей" category="71" did="1879095045" parentZoneId="1879094891" longitude="-16.682743" latitude="-35.55361"/>
<marker id="442691666" label="Молодой лесной тролль - воин" category="71" did="1879095046" parentZoneId="1879094891" longitude="-16.682743" latitude="-35.55361"/>
<marker id="442691667" label="Молодой лесной тролль - метатель" category="71" did="1879095047" parentZoneId="1879094891" longitude="-16.682743" latitude="-35.55361"/>
<marker id="442691668" label="Цепкий озерный кочун" category="71" did="1879095033" parentZoneId="1879094891" longitude="-16.682743" latitude="-35.55361"/>
<marker id="442691669" label="Озерный кочун" category="71" did="1879095034" parentZoneId="1879094891" longitude="-16.682743" latitude="-35.55361"/>
<marker id="442691670" label="Молодой вожак лесных троллей" category="71" did="1879095045" parentZoneId="1879094891" longitude="-16.88618" latitude="-35.544773"/>
<marker id="442691671" label="Молодой лесной тролль - воин" category="71" did="1879095046" parentZoneId="1879094891" longitude="-16.88618" latitude="-35.544773"/>
<marker id="442691672" label="Молодой лесной тролль - метатель" category="71" did="1879095047" parentZoneId="1879094891" longitude="-16.88618" latitude="-35.544773"/>
<marker id="442691673" label="Цепкий озерный кочун" category="71" did="1879095033" parentZoneId="1879094891" longitude="-16.88618" latitude="-35.544773"/>
<marker id="442691674" label="Озерный кочун" category="71" did="1879095034" parentZoneId="1879094891" longitude="-16.88618" latitude="-35.544773"/>
<marker id="442691675" label="Котомка" category="72" did="1879095059" parentZoneId="1879094891" longitude="-16.519648" latitude="-35.475555"/>
<marker id="442691676" label="Котомка" category="72" did="1879095059" parentZoneId="1879094891" longitude="-16.573456" latitude="-35.52009"/>
<marker id="442691677" label="Котомка" category="72" did="1879095059" parentZoneId="1879094891" longitude="-16.503944" latitude="-35.545567"/>
<marker id="442691678" label="Котомка" category="72" did="1879095059" parentZoneId="1879094891" longitude="-16.461817" latitude="-35.304432"/>
<marker id="442691679" label="Котомка" category="72" did="1879095059" parentZoneId="1879094891" longitude="-16.663809" latitude="-35.358387"/>
<marker id="442691680" label="Котомка" category="72" did="1879095059" parentZoneId="1879094891" longitude="-16.615498" latitude="-35.090076"/>
<marker id="442691681" label="Котомка" category="72" did="1879095059" parentZoneId="1879094891" longitude="-16.75247" latitude="-35.23253"/>
<marker id="442691682" label="Котомка" category="72" did="1879095059" parentZoneId="1879094891" longitude="-16.859755" latitude="-35.076046"/>
<marker id="442691683" label="Котомка" category="72" did="1879095059" parentZoneId="1879094891" longitude="-16.902235" latitude="-35.01829"/>
<marker id="442691684" label="Котомка" category="72" did="1879095059" parentZoneId="1879094891" longitude="-16.574776" latitude="-34.850098"/>
<marker id="442740736" label="Эхад Гаурадан" category="43" did="1879096334" parentZoneId="1879094891" longitude="-16.113916" latitude="-38.33954"/>
<marker id="442740737" label="Лесной кролик" category="78" did="1879086592" parentZoneId="1879094891" longitude="-15.634999" latitude="-38.037987"/>
<marker id="442740738" label="Рыжая лиса" category="78" did="1879086600" parentZoneId="1879094891" longitude="-15.634999" latitude="-38.037987"/>
<marker id="442740739" label="Серебристая белка" category="78" did="1879086602" parentZoneId="1879094891" longitude="-15.634999" latitude="-38.037987"/>
<marker id="442740740" label="Лесной кролик" category="78" did="1879086592" parentZoneId="1879094891" longitude="-15.796982" latitude="-38.092636"/>
<marker id="442740741" label="Рыжая лиса" category="78" did="1879086600" parentZoneId="1879094891" longitude="-15.796982" latitude="-38.092636"/>
<marker id="442740742" label="Серебристая белка" category="78" did="1879086602" parentZoneId="1879094891" longitude="-15.796982" latitude="-38.092636"/>
<marker id="442740743" label="Лесной кролик" category="78" did="1879086592" parentZoneId="1879094891" longitude="-15.717334" latitude="-38.22535"/>
<marker id="442740744" label="Рыжая лиса" category="78" did="1879086600" parentZoneId="1879094891" longitude="-15.717334" latitude="-38.22535"/>
<marker id="442740745" label="Серебристая белка" category="78" did="1879086602" parentZoneId="1879094891" longitude="-15.717334" latitude="-38.22535"/>
<marker id="442740746" label="Лесной кролик" category="78" did="1879086592" parentZoneId="1879094891" longitude="-16.310429" latitude="-38.0571"/>
<marker id="442740747" label="Рыжая лиса" category="78" did="1879086600" parentZoneId="1879094891" longitude="-16.310429" latitude="-38.0571"/>
<marker id="442740748" label="Серебристая белка" category="78" did="1879086602" parentZoneId="1879094891" longitude="-16.310429" latitude="-38.0571"/>
<marker id="442740749" label="Листья индиго" category="73" did="1879054949" parentZoneId="1879094891" longitude="-15.76457" latitude="-38.08279"/>
<marker id="442740750" label="Злобный длиннорог" category="71" did="1879095031" parentZoneId="1879094891" longitude="-15.76457" latitude="-38.08279"/>
<marker id="442740751" label="Клубника" category="73" did="1879061415" parentZoneId="1879094891" longitude="-15.76457" latitude="-38.08279"/>
<marker id="442740752" label="Отличный клеверный мед" category="73" did="1879061399" parentZoneId="1879094891" longitude="-15.76457" latitude="-38.08279"/>
<marker id="442740753" label="Послушный длиннорог" category="71" did="1879095032" parentZoneId="1879094891" longitude="-15.76457" latitude="-38.08279"/>
<marker id="442740754" label="Ползучий скальный ящер" category="71" did="1879095049" parentZoneId="1879094891" longitude="-15.76457" latitude="-38.08279"/>
<marker id="442740755" label="Малина" category="73" did="1879061417" parentZoneId="1879094891" longitude="-15.76457" latitude="-38.08279"/>
<marker id="442740756" label="Картофель" category="73" did="1879061257" parentZoneId="1879094891" longitude="-15.76457" latitude="-38.08279"/>
<marker id="442740757" label="Ежевика" category="73" did="1879061418" parentZoneId="1879094891" longitude="-15.76457" latitude="-38.08279"/>
<marker id="442740758" label="Хвостатая сколопендра" category="71" did="1879095035" parentZoneId="1879094891" longitude="-15.76457" latitude="-38.08279"/>
<marker id="442740759" label="Блуждающий каменный тролль" category="71" did="1879095036" parentZoneId="1879094891" longitude="-15.76457" latitude="-38.08279"/>
<marker id="442740760" label="Черника" category="73" did="1879061342" parentZoneId="1879094891" longitude="-15.76457" latitude="-38.08279"/>
<marker id="442740761" label="Листья индиго" category="73" did="1879054949" parentZoneId="1879094891" longitude="-15.655273" latitude="-38.04714"/>
<marker id="442740762" label="Злобный длиннорог" category="71" did="1879095031" parentZoneId="1879094891" longitude="-15.655273" latitude="-38.04714"/>
<marker id="442740763" label="Клубника" category="73" did="1879061415" parentZoneId="1879094891" longitude="-15.655273" latitude="-38.04714"/>
<marker id="442740764" label="Отличный клеверный мед" category="73" did="1879061399" parentZoneId="1879094891" longitude="-15.655273" latitude="-38.04714"/>
<marker id="442740765" label="Послушный длиннорог" category="71" did="1879095032" parentZoneId="1879094891" longitude="-15.655273" latitude="-38.04714"/>
<marker id="442740766" label="Ползучий скальный ящер" category="71" did="1879095049" parentZoneId="1879094891" longitude="-15.655273" latitude="-38.04714"/>
<marker id="442740767" label="Малина" category="73" did="1879061417" parentZoneId="1879094891" longitude="-15.655273" latitude="-38.04714"/>
<marker id="442740768" label="Картофель" category="73" did="1879061257" parentZoneId="1879094891" longitude="-15.655273" latitude="-38.04714"/>
<marker id="442740769" label="Ежевика" category="73" did="1879061418" parentZoneId="1879094891" longitude="-15.655273" latitude="-38.04714"/>
<marker id="442740770" label="Хвостатая сколопендра" category="71" did="1879095035" parentZoneId="1879094891" longitude="-15.655273" latitude="-38.04714"/>
<marker id="442740771" label="Блуждающий каменный тролль" category="71" did="1879095036" parentZoneId="1879094891" longitude="-15.655273" latitude="-38.04714"/>
<marker id="442740772" label="Черника" category="73" did="1879061342" parentZoneId="1879094891" longitude="-15.655273" latitude="-38.04714"/>
<marker id="442740773" label="Листья индиго" category="73" did="1879054949" parentZoneId="1879094891" longitude="-15.7135935" latitude="-38.220264"/>
<marker id="442740774" label="Злобный длиннорог" category="71" did="1879095031" parentZoneId="1879094891" longitude="-15.7135935" latitude="-38.220264"/>
<marker id="442740775" label="Клубника" category="73" did="1879061415" parentZoneId="1879094891" longitude="-15.7135935" latitude="-38.220264"/>
<marker id="442740776" label="Отличный клеверный мед" category="73" did="1879061399" parentZoneId="1879094891" longitude="-15.7135935" latitude="-38.220264"/>
<marker id="442740777" label="Послушный длиннорог" category="71" did="1879095032" parentZoneId="1879094891" longitude="-15.7135935" latitude="-38.220264"/>
<marker id="442740778" label="Ползучий скальный ящер" category="71" did="1879095049" parentZoneId="1879094891" longitude="-15.7135935" latitude="-38.220264"/>
<marker id="442740779" label="Малина" category="73" did="1879061417" parentZoneId="1879094891" longitude="-15.7135935" latitude="-38.220264"/>
<marker id="442740780" label="Картофель" category="73" did="1879061257" parentZoneId="1879094891" longitude="-15.7135935" latitude="-38.220264"/>
<marker id="442740781" label="Ежевика" category="73" did="1879061418" parentZoneId="1879094891" longitude="-15.7135935" latitude="-38.220264"/>
<marker id="442740782" label="Хвостатая сколопендра" category="71" did="1879095035" parentZoneId="1879094891" longitude="-15.7135935" latitude="-38.220264"/>
<marker id="442740783" label="Блуждающий каменный тролль" category="71" did="1879095036" parentZoneId="1879094891" longitude="-15.7135935" latitude="-38.220264"/>
<marker id="442740784" label="Черника" category="73" did="1879061342" parentZoneId="1879094891" longitude="-15.7135935" latitude="-38.220264"/>
<marker id="442740785" label="Забытый манускрипт" category="50" did="1879080159" parentZoneId="1879094891" longitude="-15.895439" latitude="-38.172695"/>
<marker id="442740786" label="Забытый манускрипт" category="50" did="1879080159" parentZoneId="1879094891" longitude="-16.12126" latitude="-38.2624"/>
<marker id="442740787" label="Забытый манускрипт" category="50" did="1879080159" parentZoneId="1879094891" longitude="-16.220018" latitude="-38.254795"/>
<marker id="442740788" label="Забытый манускрипт" category="50" did="1879080159" parentZoneId="1879094891" longitude="-16.191053" latitude="-38.285965"/>
<marker id="442740789" label="Забытый манускрипт" category="50" did="1879080159" parentZoneId="1879094891" longitude="-16.22877" latitude="-38.248173"/>
<marker id="442740790" label="Забытый манускрипт" category="50" did="1879080159" parentZoneId="1879094891" longitude="-16.214315" latitude="-38.17077"/>
<marker id="442740791" label="Забытый манускрипт" category="50" did="1879080159" parentZoneId="1879094891" longitude="-16.012852" latitude="-38.42655"/>
<marker id="442740792" label="Забытый манускрипт" category="50" did="1879080159" parentZoneId="1879094891" longitude="-15.929863" latitude="-38.42501"/>
<marker id="442740793" label="Забытый манускрипт" category="50" did="1879080159" parentZoneId="1879094891" longitude="-15.930215" latitude="-38.33379"/>
<marker id="442740794" label="Забытый манускрипт" category="50" did="1879080159" parentZoneId="1879094891" longitude="-16.1354" latitude="-38.081688"/>
<marker id="442740795" label="Забытый манускрипт" category="50" did="1879080159" parentZoneId="1879094891" longitude="-16.077763" latitude="-38.070595"/>
<marker id="442740796" label="Забытый манускрипт" category="50" did="1879080159" parentZoneId="1879094891" longitude="-15.960839" latitude="-38.165565"/>
<marker id="442740797" label="Забытый манускрипт" category="50" did="1879080159" parentZoneId="1879094891" longitude="-16.135996" latitude="-38.11126"/>
<marker id="442740798" label="Забытый манускрипт" category="50" did="1879080159" parentZoneId="1879094891" longitude="-16.088017" latitude="-38.17006"/>
<marker id="442740799" label="Забытый манускрипт" category="50" did="1879080159" parentZoneId="1879094891" longitude="-16.241669" latitude="-38.28547"/>
<marker id="442740800" label="Забытый манускрипт" category="50" did="1879080159" parentZoneId="1879094891" longitude="-16.245693" latitude="-38.356415"/>
<marker id="442740801" label="Забытый манускрипт" category="50" did="1879080159" parentZoneId="1879094891" longitude="-16.208124" latitude="-38.395145"/>
<marker id="442740802" label="Забытый манускрипт" category="50" did="1879080159" parentZoneId="1879094891" longitude="-16.154034" latitude="-38.408035"/>
<marker id="442740803" label="Забытый манускрипт" category="50" did="1879080159" parentZoneId="1879094891" longitude="-15.965478" latitude="-38.076336"/>
<marker id="442740804" label="Свирепый вожак стаи" category="71" did="1879095043" parentZoneId="1879094891" longitude="-16.17503" latitude="-38.364483"/>
<marker id="442740805" label="Рычащий лесной охотник" category="71" did="1879095044" parentZoneId="1879094891" longitude="-16.17503" latitude="-38.364483"/>
<marker id="442740806" label="Гаурадан-шаман" category="71" did="1879095037" parentZoneId="1879094891" longitude="-16.17503" latitude="-38.364483"/>
<marker id="442740807" label="Гаурадан - лесной житель" category="71" did="1879095038" parentZoneId="1879094891" longitude="-16.17503" latitude="-38.364483"/>
<marker id="442740808" label="Гаурадан-наблюдатель" category="71" did="1879095039" parentZoneId="1879094891" longitude="-16.17503" latitude="-38.364483"/>
<marker id="442740809" label="Свирепый вожак стаи" category="71" did="1879095043" parentZoneId="1879094891" longitude="-16.194805" latitude="-38.251026"/>
<marker id="442740810" label="Рычащий лесной охотник" category="71" did="1879095044" parentZoneId="1879094891" longitude="-16.194805" latitude="-38.251026"/>
<marker id="442740811" label="Гаурадан-шаман" category="71" did="1879095037" parentZoneId="1879094891" longitude="-16.194805" latitude="-38.251026"/>
<marker id="442740812" label="Гаурадан - лесной житель" category="71" did="1879095038" parentZoneId="1879094891" longitude="-16.194805" latitude="-38.251026"/>
<marker id="442740813" label="Гаурадан-наблюдатель" category="71" did="1879095039" parentZoneId="1879094891" longitude="-16.194805" latitude="-38.251026"/>
<marker id="442740814" label="Свирепый вожак стаи" category="71" did="1879095043" parentZoneId="1879094891" longitude="-16.168495" latitude="-38.24652"/>
<marker id="442740815" label="Рычащий лесной охотник" category="71" did="1879095044" parentZoneId="1879094891" longitude="-16.168495" latitude="-38.24652"/>
<marker id="442740816" label="Гаурадан-шаман" category="71" did="1879095037" parentZoneId="1879094891" longitude="-16.168495" latitude="-38.24652"/>
<marker id="442740817" label="Гаурадан - лесной житель" category="71" did="1879095038" parentZoneId="1879094891" longitude="-16.168495" latitude="-38.24652"/>
<marker id="442740818" label="Гаурадан-наблюдатель" category="71" did="1879095039" parentZoneId="1879094891" longitude="-16.168495" latitude="-38.24652"/>
<marker id="442740819" label="Свирепый вожак стаи" category="71" did="1879095043" parentZoneId="1879094891" longitude="-15.953731" latitude="-38.403633"/>
<marker id="442740820" label="Рычащий лесной охотник" category="71" did="1879095044" parentZoneId="1879094891" longitude="-15.953731" latitude="-38.403633"/>
<marker id="442740821" label="Гаурадан-шаман" category="71" did="1879095037" parentZoneId="1879094891" longitude="-15.953731" latitude="-38.403633"/>
<marker id="442740822" label="Гаурадан - лесной житель" category="71" did="1879095038" parentZoneId="1879094891" longitude="-15.953731" latitude="-38.403633"/>
<marker id="442740823" label="Гаурадан-наблюдатель" category="71" did="1879095039" parentZoneId="1879094891" longitude="-15.953731" latitude="-38.403633"/>
<marker id="442740824" label="Свирепый вожак стаи" category="71" did="1879095043" parentZoneId="1879094891" longitude="-15.953584" latitude="-38.35617"/>
<marker id="442740825" label="Рычащий лесной охотник" category="71" did="1879095044" parentZoneId="1879094891" longitude="-15.953584" latitude="-38.35617"/>
<marker id="442740826" label="Гаурадан-шаман" category="71" did="1879095037" parentZoneId="1879094891" longitude="-15.953584" latitude="-38.35617"/>
<marker id="442740827" label="Гаурадан - лесной житель" category="71" did="1879095038" parentZoneId="1879094891" longitude="-15.953584" latitude="-38.35617"/>
<marker id="442740828" label="Гаурадан-наблюдатель" category="71" did="1879095039" parentZoneId="1879094891" longitude="-15.953584" latitude="-38.35617"/>
<marker id="442740829" label="Свирепый вожак стаи" category="71" did="1879095043" parentZoneId="1879094891" longitude="-16.003534" latitude="-38.39962"/>
<marker id="442740830" label="Рычащий лесной охотник" category="71" did="1879095044" parentZoneId="1879094891" longitude="-16.003534" latitude="-38.39962"/>
<marker id="442740831" label="Гаурадан-шаман" category="71" did="1879095037" parentZoneId="1879094891" longitude="-16.003534" latitude="-38.39962"/>
<marker id="442740832" label="Гаурадан - лесной житель" category="71" did="1879095038" parentZoneId="1879094891" longitude="-16.003534" latitude="-38.39962"/>
<marker id="442740833" label="Гаурадан-наблюдатель" category="71" did="1879095039" parentZoneId="1879094891" longitude="-16.003534" latitude="-38.39962"/>
<marker id="442740834" label="Свирепый вожак стаи" category="71" did="1879095043" parentZoneId="1879094891" longitude="-15.880869" latitude="-38.21001"/>
<marker id="442740835" label="Рычащий лесной охотник" category="71" did="1879095044" parentZoneId="1879094891" longitude="-15.880869" latitude="-38.21001"/>
<marker id="442740836" label="Гаурадан-шаман" category="71" did="1879095037" parentZoneId="1879094891" longitude="-15.880869" latitude="-38.21001"/>
<marker id="442740837" label="Гаурадан - лесной житель" category="71" did="1879095038" parentZoneId="1879094891" longitude="-15.880869" latitude="-38.21001"/>
<marker id="442740838" label="Гаурадан-наблюдатель" category="71" did="1879095039" parentZoneId="1879094891" longitude="-15.880869" latitude="-38.21001"/>
<marker id="442740839" label="Свирепый вожак стаи" category="71" did="1879095043" parentZoneId="1879094891" longitude="-15.871972" latitude="-38.173134"/>
<marker id="442740840" label="Рычащий лесной охотник" category="71" did="1879095044" parentZoneId="1879094891" longitude="-15.871972" latitude="-38.173134"/>
<marker id="442740841" label="Гаурадан-шаман" category="71" did="1879095037" parentZoneId="1879094891" longitude="-15.871972" latitude="-38.173134"/>
<marker id="442740842" label="Гаурадан - лесной житель" category="71" did="1879095038" parentZoneId="1879094891" longitude="-15.871972" latitude="-38.173134"/>
<marker id="442740843" label="Гаурадан-наблюдатель" category="71" did="1879095039" parentZoneId="1879094891" longitude="-15.871972" latitude="-38.173134"/>
<marker id="442740844" label="Свирепый вожак стаи" category="71" did="1879095043" parentZoneId="1879094891" longitude="-15.970625" latitude="-38.045216"/>
<marker id="442740845" label="Рычащий лесной охотник" category="71" did="1879095044" parentZoneId="1879094891" longitude="-15.970625" latitude="-38.045216"/>
<marker id="442740846" label="Гаурадан-шаман" category="71" did="1879095037" parentZoneId="1879094891" longitude="-15.970625" latitude="-38.045216"/>
<marker id="442740847" label="Гаурадан - лесной житель" category="71" did="1879095038" parentZoneId="1879094891" longitude="-15.970625" latitude="-38.045216"/>
<marker id="442740848" label="Гаурадан-наблюдатель" category="71" did="1879095039" parentZoneId="1879094891" longitude="-15.970625" latitude="-38.045216"/>
<marker id="442740849" label="Свирепый вожак стаи" category="71" did="1879095043" parentZoneId="1879094891" longitude="-16.131151" latitude="-38.05502"/>
<marker id="442740850" label="Рычащий лесной охотник" category="71" did="1879095044" parentZoneId="1879094891" longitude="-16.131151" latitude="-38.05502"/>
<marker id="442740851" label="Гаурадан-шаман" category="71" did="1879095037" parentZoneId="1879094891" longitude="-16.131151" latitude="-38.05502"/>
<marker id="442740852" label="Гаурадан - лесной житель" category="71" did="1879095038" parentZoneId="1879094891" longitude="-16.131151" latitude="-38.05502"/>
<marker id="442740853" label="Гаурадан-наблюдатель" category="71" did="1879095039" parentZoneId="1879094891" longitude="-16.131151" latitude="-38.05502"/>
<marker id="442740854" label="Свирепый вожак стаи" category="71" did="1879095043" parentZoneId="1879094891" longitude="-16.080936" latitude="-38.15074"/>
<marker id="442740855" label="Рычащий лесной охотник" category="71" did="1879095044" parentZoneId="1879094891" longitude="-16.080936" latitude="-38.15074"/>
<marker id="442740856" label="Гаурадан-шаман" category="71" did="1879095037" parentZoneId="1879094891" longitude="-16.080936" latitude="-38.15074"/>
<marker id="442740857" label="Гаурадан - лесной житель" category="71" did="1879095038" parentZoneId="1879094891" longitude="-16.080936" latitude="-38.15074"/>
<marker id="442740858" label="Гаурадан-наблюдатель" category="71" did="1879095039" parentZoneId="1879094891" longitude="-16.080936" latitude="-38.15074"/>
<marker id="442740859" label="Свирепый вожак стаи" category="71" did="1879095043" parentZoneId="1879094891" longitude="-16.263554" latitude="-38.311394"/>
<marker id="442740860" label="Рычащий лесной охотник" category="71" did="1879095044" parentZoneId="1879094891" longitude="-16.263554" latitude="-38.311394"/>
<marker id="442740861" label="Гаурадан-шаман" category="71" did="1879095037" parentZoneId="1879094891" longitude="-16.263554" latitude="-38.311394"/>
<marker id="442740862" label="Гаурадан - лесной житель" category="71" did="1879095038" parentZoneId="1879094891" longitude="-16.263554" latitude="-38.311394"/>
<marker id="442740863" label="Гаурадан-наблюдатель" category="71" did="1879095039" parentZoneId="1879094891" longitude="-16.263554" latitude="-38.311394"/>
<marker id="442740864" label="Свирепый вожак стаи" category="71" did="1879095043" parentZoneId="1879094891" longitude="-16.239794" latitude="-38.304306"/>
<marker id="442740865" label="Рычащий лесной охотник" category="71" did="1879095044" parentZoneId="1879094891" longitude="-16.239794" latitude="-38.304306"/>
<marker id="442740866" label="Гаурадан-шаман" category="71" did="1879095037" parentZoneId="1879094891" longitude="-16.239794" latitude="-38.304306"/>
<marker id="442740867" label="Гаурадан - лесной житель" category="71" did="1879095038" parentZoneId="1879094891" longitude="-16.239794" latitude="-38.304306"/>
<marker id="442740868" label="Гаурадан-наблюдатель" category="71" did="1879095039" parentZoneId="1879094891" longitude="-16.239794" latitude="-38.304306"/>
<marker id="442740869" label="Свирепый вожак стаи" category="71" did="1879095043" parentZoneId="1879094891" longitude="-16.25036" latitude="-38.176006"/>
<marker id="442740870" label="Рычащий лесной охотник" category="71" did="1879095044" parentZoneId="1879094891" longitude="-16.25036" latitude="-38.176006"/>
<marker id="442740871" label="Гаурадан-шаман" category="71" did="1879095037" parentZoneId="1879094891" longitude="-16.25036" latitude="-38.176006"/>
<marker id="442740872" label="Гаурадан - лесной житель" category="71" did="1879095038" parentZoneId="1879094891" longitude="-16.25036" latitude="-38.176006"/>
<marker id="442740873" label="Гаурадан-наблюдатель" category="71" did="1879095039" parentZoneId="1879094891" longitude="-16.25036" latitude="-38.176006"/>
<marker id="442740874" label="Свирепый вожак стаи" category="71" did="1879095043" parentZoneId="1879094891" longitude="-16.215048" latitude="-38.215252"/>
<marker id="442740875" label="Рычащий лесной охотник" category="71" did="1879095044" parentZoneId="1879094891" longitude="-16.215048" latitude="-38.215252"/>
<marker id="442740876" label="Гаурадан-шаман" category="71" did="1879095037" parentZoneId="1879094891" longitude="-16.215048" latitude="-38.215252"/>
<marker id="442740877" label="Гаурадан - лесной житель" category="71" did="1879095038" parentZoneId="1879094891" longitude="-16.215048" latitude="-38.215252"/>
<marker id="442740878" label="Гаурадан-наблюдатель" category="71" did="1879095039" parentZoneId="1879094891" longitude="-16.215048" latitude="-38.215252"/>
<marker id="442740879" label="Свирепый вожак стаи" category="71" did="1879095043" parentZoneId="1879094891" longitude="-16.234833" latitude="-38.23905"/>
<marker id="442740880" label="Рычащий лесной охотник" category="71" did="1879095044" parentZoneId="1879094891" longitude="-16.234833" latitude="-38.23905"/>
<marker id="442740881" label="Гаурадан-шаман" category="71" did="1879095037" parentZoneId="1879094891" longitude="-16.234833" latitude="-38.23905"/>
<marker id="442740882" label="Гаурадан - лесной житель" category="71" did="1879095038" parentZoneId="1879094891" longitude="-16.234833" latitude="-38.23905"/>
<marker id="442740883" label="Гаурадан-наблюдатель" category="71" did="1879095039" parentZoneId="1879094891" longitude="-16.234833" latitude="-38.23905"/>
<marker id="442740884" label="Свирепый вожак стаи" category="71" did="1879095043" parentZoneId="1879094891" longitude="-15.9952345" latitude="-38.12166"/>
<marker id="442740885" label="Рычащий лесной охотник" category="71" did="1879095044" parentZoneId="1879094891" longitude="-15.9952345" latitude="-38.12166"/>
<marker id="442740886" label="Гаурадан-шаман" category="71" did="1879095037" parentZoneId="1879094891" longitude="-15.9952345" latitude="-38.12166"/>
<marker id="442740887" label="Гаурадан - лесной житель" category="71" did="1879095038" parentZoneId="1879094891" longitude="-15.9952345" latitude="-38.12166"/>
<marker id="442740888" label="Гаурадан-наблюдатель" category="71" did="1879095039" parentZoneId="1879094891" longitude="-15.9952345" latitude="-38.12166"/>
<marker id="442740889" label="Свирепый вожак стаи" category="71" did="1879095043" parentZoneId="1879094891" longitude="-16.110928" latitude="-38.084923"/>
<marker id="442740890" label="Рычащий лесной охотник" category="71" did="1879095044" parentZoneId="1879094891" longitude="-16.110928" latitude="-38.084923"/>
<marker id="442740891" label="Гаурадан-шаман" category="71" did="1879095037" parentZoneId="1879094891" longitude="-16.110928" latitude="-38.084923"/>
<marker id="442740892" label="Гаурадан - лесной житель" category="71" did="1879095038" parentZoneId="1879094891" longitude="-16.110928" latitude="-38.084923"/>
<marker id="442740893" label="Гаурадан-наблюдатель" category="71" did="1879095039" parentZoneId="1879094891" longitude="-16.110928" latitude="-38.084923"/>
<marker id="442740894" label="Свирепый вожак стаи" category="71" did="1879095043" parentZoneId="1879094891" longitude="-16.101748" latitude="-38.34762"/>
<marker id="442740895" label="Рычащий лесной охотник" category="71" did="1879095044" parentZoneId="1879094891" longitude="-16.101748" latitude="-38.34762"/>
<marker id="442740896" label="Гаурадан-шаман" category="71" did="1879095037" parentZoneId="1879094891" longitude="-16.101748" latitude="-38.34762"/>
<marker id="442740897" label="Гаурадан - лесной житель" category="71" did="1879095038" parentZoneId="1879094891" longitude="-16.101748" latitude="-38.34762"/>
<marker id="442740898" label="Гаурадан-наблюдатель" category="71" did="1879095039" parentZoneId="1879094891" longitude="-16.101748" latitude="-38.34762"/>
<marker id="442740899" label="Свирепый вожак стаи" category="71" did="1879095043" parentZoneId="1879094891" longitude="-16.310322" latitude="-38.118973"/>
<marker id="442740900" label="Рычащий лесной охотник" category="71" did="1879095044" parentZoneId="1879094891" longitude="-16.310322" latitude="-38.118973"/>
<marker id="442740901" label="Гаурадан-шаман" category="71" did="1879095037" parentZoneId="1879094891" longitude="-16.310322" latitude="-38.118973"/>
<marker id="442740902" label="Гаурадан - лесной житель" category="71" did="1879095038" parentZoneId="1879094891" longitude="-16.310322" latitude="-38.118973"/>
<marker id="442740903" label="Гаурадан-наблюдатель" category="71" did="1879095039" parentZoneId="1879094891" longitude="-16.310322" latitude="-38.118973"/>
<marker id="442740904" label="Свирепый вожак стаи" category="71" did="1879095043" parentZoneId="1879094891" longitude="-16.344658" latitude="-38.042107"/>
<marker id="442740905" label="Рычащий лесной охотник" category="71" did="1879095044" parentZoneId="1879094891" longitude="-16.344658" latitude="-38.042107"/>
<marker id="442740906" label="Гаурадан-шаман" category="71" did="1879095037" parentZoneId="1879094891" longitude="-16.344658" latitude="-38.042107"/>
<marker id="442740907" label="Гаурадан - лесной житель" category="71" did="1879095038" parentZoneId="1879094891" longitude="-16.344658" latitude="-38.042107"/>
<marker id="442740908" label="Гаурадан-наблюдатель" category="71" did="1879095039" parentZoneId="1879094891" longitude="-16.344658" latitude="-38.042107"/>
<marker id="442740909" label="Труп" category="72" did="1879095058" parentZoneId="1879094891" longitude="-15.927324" latitude="-38.3786"/>
<marker id="442740910" label="Труп" category="72" did="1879095058" parentZoneId="1879094891" longitude="-15.980253" latitude="-38.426376"/>
<marker id="442740911" label="Труп" category="72" did="1879095058" parentZoneId="1879094891" longitude="-16.271864" latitude="-38.322334"/>
<marker id="442740912" label="Труп" category="72" did="1879095058" parentZoneId="1879094891" longitude="-16.087343" latitude="-38.05288"/>
<marker id="442740913" label="Труп" category="72" did="1879095058" parentZoneId="1879094891" longitude="-16.21874" latitude="-38.23837"/>
<marker id="442740914" label="Труп" category="72" did="1879095058" parentZoneId="1879094891" longitude="-15.944785" latitude="-38.267986"/>
<marker id="442740915" label="Труп" category="72" did="1879095058" parentZoneId="1879094891" longitude="-15.956279" latitude="-38.316856"/>
<marker id="442740916" label="Труп" category="72" did="1879095058" parentZoneId="1879094891" longitude="-16.153545" latitude="-38.235077"/>
<marker id="442744832" label="Лесной кролик" category="78" did="1879086592" parentZoneId="1879094891" longitude="-15.644794" latitude="-37.45329"/>
<marker id="442744833" label="Рыжая лиса" category="78" did="1879086600" parentZoneId="1879094891" longitude="-15.644794" latitude="-37.45329"/>
<marker id="442744834" label="Серебристая белка" category="78" did="1879086602" parentZoneId="1879094891" longitude="-15.644794" latitude="-37.45329"/>
<marker id="442744835" label="Лесной кролик" category="78" did="1879086592" parentZoneId="1879094891" longitude="-15.70833" latitude="-37.28195"/>
<marker id="442744836" label="Рыжая лиса" category="78" did="1879086600" parentZoneId="1879094891" longitude="-15.70833" latitude="-37.28195"/>
<marker id="442744837" label="Серебристая белка" category="78" did="1879086602" parentZoneId="1879094891" longitude="-15.70833" latitude="-37.28195"/>
<marker id="442744838" label="Лесной кролик" category="78" did="1879086592" parentZoneId="1879094891" longitude="-15.964423" latitude="-37.268475"/>
<marker id="442744839" label="Рыжая лиса" category="78" did="1879086600" parentZoneId="1879094891" longitude="-15.964423" latitude="-37.268475"/>
<marker id="442744840" label="Серебристая белка" category="78" did="1879086602" parentZoneId="1879094891" longitude="-15.964423" latitude="-37.268475"/>
<marker id="442744841" label="Лесной кролик" category="78" did="1879086592" parentZoneId="1879094891" longitude="-16.183271" latitude="-37.249294"/>
<marker id="442744842" label="Рыжая лиса" category="78" did="1879086600" parentZoneId="1879094891" longitude="-16.183271" latitude="-37.249294"/>
<marker id="442744843" label="Серебристая белка" category="78" did="1879086602" parentZoneId="1879094891" longitude="-16.183271" latitude="-37.249294"/>
<marker id="442744844" label="Лесной кролик" category="78" did="1879086592" parentZoneId="1879094891" longitude="-15.880038" latitude="-37.50206"/>
<marker id="442744845" label="Рыжая лиса" category="78" did="1879086600" parentZoneId="1879094891" longitude="-15.880038" latitude="-37.50206"/>
<marker id="442744846" label="Серебристая белка" category="78" did="1879086602" parentZoneId="1879094891" longitude="-15.880038" latitude="-37.50206"/>
<marker id="442744847" label="Лесной кролик" category="78" did="1879086592" parentZoneId="1879094891" longitude="-15.881113" latitude="-37.6746"/>
<marker id="442744848" label="Рыжая лиса" category="78" did="1879086600" parentZoneId="1879094891" longitude="-15.881113" latitude="-37.6746"/>
<marker id="442744849" label="Серебристая белка" category="78" did="1879086602" parentZoneId="1879094891" longitude="-15.881113" latitude="-37.6746"/>
<marker id="442744850" label="Лесной кролик" category="78" did="1879086592" parentZoneId="1879094891" longitude="-16.11453" latitude="-37.58627"/>
<marker id="442744851" label="Рыжая лиса" category="78" did="1879086600" parentZoneId="1879094891" longitude="-16.11453" latitude="-37.58627"/>
<marker id="442744852" label="Серебристая белка" category="78" did="1879086602" parentZoneId="1879094891" longitude="-16.11453" latitude="-37.58627"/>
<marker id="442744853" label="Лесной кролик" category="78" did="1879086592" parentZoneId="1879094891" longitude="-16.30997" latitude="-37.474277"/>
<marker id="442744854" label="Рыжая лиса" category="78" did="1879086600" parentZoneId="1879094891" longitude="-16.30997" latitude="-37.474277"/>
<marker id="442744855" label="Серебристая белка" category="78" did="1879086602" parentZoneId="1879094891" longitude="-16.30997" latitude="-37.474277"/>
<marker id="442744856" label="Лесной кролик" category="78" did="1879086592" parentZoneId="1879094891" longitude="-16.324863" latitude="-37.682266"/>
<marker id="442744857" label="Рыжая лиса" category="78" did="1879086600" parentZoneId="1879094891" longitude="-16.324863" latitude="-37.682266"/>
<marker id="442744858" label="Серебристая белка" category="78" did="1879086602" parentZoneId="1879094891" longitude="-16.324863" latitude="-37.682266"/>
<marker id="442744859" label="Лесной кролик" category="78" did="1879086592" parentZoneId="1879094891" longitude="-15.764951" latitude="-37.86586"/>
<marker id="442744860" label="Рыжая лиса" category="78" did="1879086600" parentZoneId="1879094891" longitude="-15.764951" latitude="-37.86586"/>
<marker id="442744861" label="Серебристая белка" category="78" did="1879086602" parentZoneId="1879094891" longitude="-15.764951" latitude="-37.86586"/>
<marker id="442744862" label="Листья индиго" category="73" did="1879054949" parentZoneId="1879094891" longitude="-15.796631" latitude="-37.280556"/>
<marker id="442744863" label="Злобный длиннорог" category="71" did="1879095031" parentZoneId="1879094891" longitude="-15.796631" latitude="-37.280556"/>
<marker id="442744864" label="Клубника" category="73" did="1879061415" parentZoneId="1879094891" longitude="-15.796631" latitude="-37.280556"/>
<marker id="442744865" label="Отличный клеверный мед" category="73" did="1879061399" parentZoneId="1879094891" longitude="-15.796631" latitude="-37.280556"/>
<marker id="442744866" label="Послушный длиннорог" category="71" did="1879095032" parentZoneId="1879094891" longitude="-15.796631" latitude="-37.280556"/>
<marker id="442744867" label="Ползучий скальный ящер" category="71" did="1879095049" parentZoneId="1879094891" longitude="-15.796631" latitude="-37.280556"/>
<marker id="442744868" label="Малина" category="73" did="1879061417" parentZoneId="1879094891" longitude="-15.796631" latitude="-37.280556"/>
<marker id="442744869" label="Картофель" category="73" did="1879061257" parentZoneId="1879094891" longitude="-15.796631" latitude="-37.280556"/>
<marker id="442744870" label="Ежевика" category="73" did="1879061418" parentZoneId="1879094891" longitude="-15.796631" latitude="-37.280556"/>
<marker id="442744871" label="Хвостатая сколопендра" category="71" did="1879095035" parentZoneId="1879094891" longitude="-15.796631" latitude="-37.280556"/>
<marker id="442744872" label="Блуждающий каменный тролль" category="71" did="1879095036" parentZoneId="1879094891" longitude="-15.796631" latitude="-37.280556"/>
<marker id="442744873" label="Черника" category="73" did="1879061342" parentZoneId="1879094891" longitude="-15.796631" latitude="-37.280556"/>
<marker id="442744874" label="Листья индиго" category="73" did="1879054949" parentZoneId="1879094891" longitude="-16.08908" latitude="-37.25909"/>
