<?xml version="1.0" encoding="UTF-8"?><markers>
<marker id="446988288" label="Товары для взломщиков" category="58" did="1879097773" parentZoneId="1879093998" longitude="-15.51414" latitude="10.69376"/>
<marker id="446988289" label="Товары для рыцарей" category="58" did="1879097774" parentZoneId="1879093998" longitude="-15.590752" latitude="10.71582"/>
<marker id="446988290" label="Товары для воителей" category="58" did="1879097775" parentZoneId="1879093998" longitude="-15.520693" latitude="10.589209"/>
<marker id="446988291" label="Товары" category="58" did="1879097776" parentZoneId="1879093998" longitude="-15.505966" latitude="10.675625"/>
<marker id="446988292" label="Товары для стражей" category="58" did="1879097777" parentZoneId="1879093998" longitude="-15.555029" latitude="10.588017"/>
<marker id="446988293" label="Товары для охотников" category="58" did="1879097778" parentZoneId="1879093998" longitude="-15.565186" latitude="10.666992"/>
<marker id="446988294" label="Всякая всячина" category="58" did="1879097779" parentZoneId="1879093998" longitude="-15.4895115" latitude="10.659903"/>
<marker id="446988295" label="Товары для хранителей мудрости" category="58" did="1879097780" parentZoneId="1879093998" longitude="-15.550058" latitude="10.738984"/>
<marker id="446988296" label="Товары для менестрелей" category="58" did="1879097781" parentZoneId="1879093998" longitude="-15.582949" latitude="10.728701"/>
<marker id="446988297" label="Лагерь" category="57" did="1879089870" parentZoneId="1879093998" longitude="-15.566464" latitude="10.676337"/>
</markers>
